{"type": "FeatureCollection", "features": [{"type": "Feature", "properties": {"FID_": 1, "NCESSCH": "010000500870", "LEAID": "0100005", "NAME": "Albertville Middle School", "OPSTFIPS": "01", "STREET": "600 E Alabama Ave", "CITY": "Albertville", "STATE": "AL", "ZIP": "35950", "STFIP": "01", "CNTY": "01095", "NMCNTY": "Marshall County", "LOCALE": "32", "LAT": 34.260194, "LON": -86.206174, "CBSA": "10700", "NMCBSA": "Albertville, AL", "CBSATYPE": "2", "CSA": "290", "NMCSA": "Huntsville-Decatur-Albertville, AL", "NECTA": "N", "NMNECTA": "N", "CD": "0104", "SLDL": "01026", "SLDU": "01009", "SCHOOLYEAR": "2018-2019"}, "geometry": {"type": "Point", "coordinates": [-86.20617875299996, 34.260200473000054]}}, {"type": "Feature", "properties": {"FID_": 2, "NCESSCH": "010000500871", "LEAID": "0100005", "NAME": "Albertville High School", "OPSTFIPS": "01", "STREET": "402 E McCord Ave", "CITY": "Albertville", "STATE": "AL", "ZIP": "35950", "STFIP": "01", "CNTY": "01095", "NMCNTY": "Marshall County", "LOCALE": "32", "LAT": 34.262226, "LON": -86.204884, "CBSA": "10700", "NMCBSA": "Albertville, AL", "CBSATYPE": "2", "CSA": "290", "NMCSA": "Huntsville-Decatur-Albertville, AL", "NECTA": "N", "NMNECTA": "N", "CD": "0104", "SLDL": "01026", "SLDU": "01009", "SCHOOLYEAR": "2018-2019"}, "geometry": {"type": "Point", "coordinates": [-86.20488875199999, 34.26223247300004]}}, {"type": "Feature", "properties": {"FID_": 3, "NCESSCH": "010000500879", "LEAID": "0100005", "NAME": "Evans Elementary School", "OPSTFIPS": "01", "STREET": "901 W McKinney Ave", "CITY": "Albertville", "STATE": "AL", "ZIP": "35950", "STFIP": "01", "CNTY": "01095", "NMCNTY": "Marshall County", "LOCALE": "32", "LAT": 34.273318, "LON": -86.220144, "CBSA": "10700", "NMCBSA": "Albertville, AL", "CBSATYPE": "2", "CSA": "290", "NMCSA": "Huntsville-Decatur-Albertville, AL", "NECTA": "N", "NMNECTA": "N", "CD": "0104", "SLDL": "01026", "SLDU": "01009", "SCHOOLYEAR": "2018-2019"}, "geometry": {"type": "Point", "coordinates": [-86.22014875799994, 34.27332447500004]}}, {"type": "Feature", "properties": {"FID_": 4, "NCESSCH": "010000500889", "LEAID": "0100005", "NAME": "Albertville Elementary School", "OPSTFIPS": "01", "STREET": "145 West End Drive", "CITY": "Albertville", "STATE": "AL", "ZIP": "35950", "STFIP": "01", "CNTY": "01095", "NMCNTY": "Marshall County", "LOCALE": "32", "LAT": 34.2527, "LON": -86.221806, "CBSA": "10700", "NMCBSA": "Albertville, AL", "CBSATYPE": "2", "CSA": "290", "NMCSA": "Huntsville-Decatur-Albertville, AL", "NECTA": "N", "NMNECTA": "N", "CD": "0104", "SLDL": "01026", "SLDU": "01009", "SCHOOLYEAR": "2018-2019"}, "geometry": {"type": "Point", "coordinates": [-86.22181075699996, 34.25270647100007]}}, {"type": "Feature", "properties": {"FID_": 5, "NCESSCH": "010000501616", "LEAID": "0100005", "NAME": "Big Spring Lake Kindergarten School", "OPSTFIPS": "01", "STREET": "257 Country Club Rd", "CITY": "Albertville", "STATE": "AL", "ZIP": "35951", "STFIP": "01", "CNTY": "01095", "NMCNTY": "Marshall County", "LOCALE": "32", "LAT": 34.289849, "LON": -86.193289, "CBSA": "10700", "NMCBSA": "Albertville, AL", "CBSATYPE": "2", "CSA": "290", "NMCSA": "Huntsville-Decatur-Albertville, AL", "NECTA": "N", "NMNECTA": "N", "CD": "0104", "SLDL": "01026", "SLDU": "01009", "SCHOOLYEAR": "2018-2019"}, "geometry": {"type": "Point", "coordinates": [-86.19329375099994, 34.28985548000003]}}, {"type": "Feature", "properties": {"FID_": 6, "NCESSCH": "010000502150", "LEAID": "0100005", "NAME": "Albertville Primary School", "OPSTFIPS": "01", "STREET": "1100 Horton Rd", "CITY": "Albertville", "STATE": "AL", "ZIP": "35950", "STFIP": "01", "CNTY": "01095", "NMCNTY": "Marshall County", "LOCALE": "32", "LAT": 34.253277, "LON": -86.22177, "CBSA": "10700", "NMCBSA": "Albertville, AL", "CBSATYPE": "2", "CSA": "290", "NMCSA": "Huntsville-Decatur-Albertville, AL", "NECTA": "N", "NMNECTA": "N", "CD": "0104", "SLDL": "01026", "SLDU": "01009", "SCHOOLYEAR": "2018-2019"}, "geometry": {"type": "Point", "coordinates": [-86.22177475699993, 34.25328347100003]}}, {"type": "Feature", "properties": {"FID_": 7, "NCESSCH": "010000600193", "LEAID": "0100006", "NAME": "Kate Duncan Smith DAR Middle", "OPSTFIPS": "01", "STREET": "6077 Main St", "CITY": "Grant", "STATE": "AL", "ZIP": "35747", "STFIP": "01", "CNTY": "01095", "NMCNTY": "Marshall County", "LOCALE": "42", "LAT": 34.533721, "LON": -86.254088, "CBSA": "10700", "NMCBSA": "Albertville, AL", "CBSATYPE": "2", "CSA": "290", "NMCSA": "Huntsville-Decatur-Albertville, AL", "NECTA": "N", "NMNECTA": "N", "CD": "0104", "SLDL": "01027", "SLDU": "01009", "SCHOOLYEAR": "2018-2019"}, "geometry": {"type": "Point", "coordinates": [-86.25409278199999, 34.53372752700005]}}, {"type": "Feature", "properties": {"FID_": 8, "NCESSCH": "010000600872", "LEAID": "0100006", "NAME": "Asbury High School", "OPSTFIPS": "01", "STREET": "1990 Asbury Rd", "CITY": "Albertville", "STATE": "AL", "ZIP": "35951", "STFIP": "01", "CNTY": "01095", "NMCNTY": "Marshall County", "LOCALE": "42", "LAT": 34.362549, "LON": -86.142019, "CBSA": "10700", "NMCBSA": "Albertville, AL", "CBSATYPE": "2", "CSA": "290", "NMCSA": "Huntsville-Decatur-Albertville, AL", "NECTA": "N", "NMNECTA": "N", "CD": "0104", "SLDL": "01026", "SLDU": "01009", "SCHOOLYEAR": "2018-2019"}, "geometry": {"type": "Point", "coordinates": [-86.14202374099995, 34.36255549700007]}}, {"type": "Feature", "properties": {"FID_": 9, "NCESSCH": "010000600876", "LEAID": "0100006", "NAME": "Claysville School", "OPSTFIPS": "01", "STREET": "140 Claysville School Rd", "CITY": "Guntersville", "STATE": "AL", "ZIP": "35976", "STFIP": "01", "CNTY": "01095", "NMCNTY": "Marshall County", "LOCALE": "41", "LAT": 34.406886, "LON": -86.270361, "CBSA": "10700", "NMCBSA": "Albertville, AL", "CBSATYPE": "2", "CSA": "290", "NMCSA": "Huntsville-Decatur-Albertville, AL", "NECTA": "N", "NMNECTA": "N", "CD": "0104", "SLDL": "01027", "SLDU": "01009", "SCHOOLYEAR": "2018-2019"}, "geometry": {"type": "Point", "coordinates": [-86.27036577999996, 34.40689250100007]}}, {"type": "Feature", "properties": {"FID_": 10, "NCESSCH": "010000600877", "LEAID": "0100006", "NAME": "Douglas Elementary School", "OPSTFIPS": "01", "STREET": "Highway 75", "CITY": "Douglas", "STATE": "AL", "ZIP": "35964", "STFIP": "01", "CNTY": "01095", "NMCNTY": "Marshall County", "LOCALE": "42", "LAT": 34.176234, "LON": -86.321259, "CBSA": "10700", "NMCBSA": "Albertville, AL", "CBSATYPE": "2", "CSA": "290", "NMCSA": "Huntsville-Decatur-Albertville, AL", "NECTA": "N", "NMNECTA": "N", "CD": "0104", "SLDL": "01034", "SLDU": "01009", "SCHOOLYEAR": "2018-2019"}, "geometry": {"type": "Point", "coordinates": [-86.32126378099997, 34.17624045100007]}}, {"type": "Feature", "properties": {"FID_": 11, "NCESSCH": "010000600878", "LEAID": "0100006", "NAME": "Douglas High School", "OPSTFIPS": "01", "STREET": "225 Eagle Drive", "CITY": "Douglas", "STATE": "AL", "ZIP": "35964", "STFIP": "01", "CNTY": "01095", "NMCNTY": "Marshall County", "LOCALE": "42", "LAT": 34.176236, "LON": -86.321321, "CBSA": "10700", "NMCBSA": "Albertville, AL", "CBSATYPE": "2", "CSA": "290", "NMCSA": "Huntsville-Decatur-Albertville, AL", "NECTA": "N", "NMNECTA": "N", "CD": "0104", "SLDL": "01034", "SLDU": "01009", "SCHOOLYEAR": "2018-2019"}, "geometry": {"type": "Point", "coordinates": [-86.32132578099998, 34.176242450000075]}}, {"type": "Feature", "properties": {"FID_": 12, "NCESSCH": "010000600880", "LEAID": "0100006", "NAME": "Brindlee Mountain Elementary School", "OPSTFIPS": "01", "STREET": "2233 Shoal Creek Rd", "CITY": "Arab", "STATE": "AL", "ZIP": "35016", "STFIP": "01", "CNTY": "01095", "NMCNTY": "Marshall County", "LOCALE": "41", "LAT": 34.344516, "LON": -86.442078, "CBSA": "10700", "NMCBSA": "Albertville, AL", "CBSATYPE": "2", "CSA": "290", "NMCSA": "Huntsville-Decatur-Albertville, AL", "NECTA": "N", "NMNECTA": "N", "CD": "0104", "SLDL": "01027", "SLDU": "01009", "SCHOOLYEAR": "2018-2019"}, "geometry": {"type": "Point", "coordinates": [-86.44208282499994, 34.34452248100007]}}, {"type": "Feature", "properties": {"FID_": 13, "NCESSCH": "010000600883", "LEAID": "0100006", "NAME": "Kate D Smith DAR High School", "OPSTFIPS": "01", "STREET": "6077 Main St", "CITY": "Grant", "STATE": "AL", "ZIP": "35747", "STFIP": "01", "CNTY": "01095", "NMCNTY": "Marshall County", "LOCALE": "42", "LAT": 34.534341, "LON": -86.254087, "CBSA": "10700", "NMCBSA": "Albertville, AL", "CBSATYPE": "2", "CSA": "290", "NMCSA": "Huntsville-Decatur-Albertville, AL", "NECTA": "N", "NMNECTA": "N", "CD": "0104", "SLDL": "01027", "SLDU": "01009", "SCHOOLYEAR": "2018-2019"}, "geometry": {"type": "Point", "coordinates": [-86.25409178199999, 34.53434752800007]}}, {"type": "Feature", "properties": {"FID_": 14, "NCESSCH": "010000600887", "LEAID": "0100006", "NAME": "Brindlee Mountain Primary School", "OPSTFIPS": "01", "STREET": "3685 Union Grove Rd", "CITY": "Union Grove", "STATE": "AL", "ZIP": "35175", "STFIP": "01", "CNTY": "01095", "NMCNTY": "Marshall County", "LOCALE": "41", "LAT": 34.399966, "LON": -86.446812, "CBSA": "10700", "NMCBSA": "Albertville, AL", "CBSATYPE": "2", "CSA": "290", "NMCSA": "Huntsville-Decatur-Albertville, AL", "NECTA": "N", "NMNECTA": "N", "CD": "0104", "SLDL": "01027", "SLDU": "01009", "SCHOOLYEAR": "2018-2019"}, "geometry": {"type": "Point", "coordinates": [-86.44681682999999, 34.399972492000074]}}, {"type": "Feature", "properties": {"FID_": 15, "NCESSCH": "010000600986", "LEAID": "0100006", "NAME": "Marshall Alternative School", "OPSTFIPS": "01", "STREET": "140 Claysville School Rd", "CITY": "Guntersville", "STATE": "AL", "ZIP": "35976", "STFIP": "01", "CNTY": "01095", "NMCNTY": "Marshall County", "LOCALE": "41", "LAT": 34.305448, "LON": -86.285854, "CBSA": "10700", "NMCBSA": "Albertville, AL", "CBSATYPE": "2", "CSA": "290", "NMCSA": "Huntsville-Decatur-Albertville, AL", "NECTA": "N", "NMNECTA": "N", "CD": "0104", "SLDL": "01034", "SLDU": "01009", "SCHOOLYEAR": "2018-2019"}, "geometry": {"type": "Point", "coordinates": [-86.28585877799998, 34.30545447900005]}}, {"type": "Feature", "properties": {"FID_": 16, "NCESSCH": "010000600987", "LEAID": "0100006", "NAME": "Marshall Technical School", "OPSTFIPS": "01", "STREET": "12312 US Highway 431 S", "CITY": "Guntersville", "STATE": "AL", "ZIP": "35976", "STFIP": "01", "CNTY": "01095", "NMCNTY": "Marshall County", "LOCALE": "41", "LAT": 34.305448, "LON": -86.285854, "CBSA": "10700", "NMCBSA": "Albertville, AL", "CBSATYPE": "2", "CSA": "290", "NMCSA": "Huntsville-Decatur-Albertville, AL", "NECTA": "N", "NMNECTA": "N", "CD": "0104", "SLDL": "01034", "SLDU": "01009", "SCHOOLYEAR": "2018-2019"}, "geometry": {"type": "Point", "coordinates": [-86.28585877799998, 34.30545447900005]}}, {"type": "Feature", "properties": {"FID_": 17, "NCESSCH": "010000601413", "LEAID": "0100006", "NAME": "Robert D Sloman Primary", "OPSTFIPS": "01", "STREET": "200 Bethlehem Rd", "CITY": "Douglas", "STATE": "AL", "ZIP": "35964", "STFIP": "01", "CNTY": "01095", "NMCNTY": "Marshall County", "LOCALE": "42", "LAT": 34.176774, "LON": -86.322507, "CBSA": "10700", "NMCBSA": "Albertville, AL", "CBSATYPE": "2", "CSA": "290", "NMCSA": "Huntsville-Decatur-Albertville, AL", "NECTA": "N", "NMNECTA": "N", "CD": "0104", "SLDL": "01034", "SLDU": "01009", "SCHOOLYEAR": "2018-2019"}, "geometry": {"type": "Point", "coordinates": [-86.32251178099995, 34.17678045100007]}}, {"type": "Feature", "properties": {"FID_": 18, "NCESSCH": "010000601585", "LEAID": "0100006", "NAME": "Brindlee Mountain High School", "OPSTFIPS": "01", "STREET": "994 Scant City Road", "CITY": "Guntersville", "STATE": "AL", "ZIP": "35976", "STFIP": "01", "CNTY": "01095", "NMCNTY": "Marshall County", "LOCALE": "41", "LAT": 34.3764, "LON": -86.421876, "CBSA": "10700", "NMCBSA": "Albertville, AL", "CBSATYPE": "2", "CSA": "290", "NMCSA": "Huntsville-Decatur-Albertville, AL", "NECTA": "N", "NMNECTA": "N", "CD": "0104", "SLDL": "01027", "SLDU": "01009", "SCHOOLYEAR": "2018-2019"}, "geometry": {"type": "Point", "coordinates": [-86.42188082099995, 34.37640648800004]}}, {"type": "Feature", "properties": {"FID_": 19, "NCESSCH": "010000601685", "LEAID": "0100006", "NAME": "Kate D Smith DAR Elementary School", "OPSTFIPS": "01", "STREET": "6077 Main St", "CITY": "Grant", "STATE": "AL", "ZIP": "35747", "STFIP": "01", "CNTY": "01095", "NMCNTY": "Marshall County", "LOCALE": "42", "LAT": 34.534339, "LON": -86.254152, "CBSA": "10700", "NMCBSA": "Albertville, AL", "CBSATYPE": "2", "CSA": "290", "NMCSA": "Huntsville-Decatur-Albertville, AL", "NECTA": "N", "NMNECTA": "N", "CD": "0104", "SLDL": "01027", "SLDU": "01009", "SCHOOLYEAR": "2018-2019"}, "geometry": {"type": "Point", "coordinates": [-86.25415678299998, 34.534345528000074]}}, {"type": "Feature", "properties": {"FID_": 20, "NCESSCH": "010000601812", "LEAID": "0100006", "NAME": "Douglas Middle School", "OPSTFIPS": "01", "STREET": "Highway 75", "CITY": "Douglas", "STATE": "AL", "ZIP": "35964", "STFIP": "01", "CNTY": "01095", "NMCNTY": "Marshall County", "LOCALE": "42", "LAT": 34.177536, "LON": -86.320895, "CBSA": "10700", "NMCBSA": "Albertville, AL", "CBSATYPE": "2", "CSA": "290", "NMCSA": "Huntsville-Decatur-Albertville, AL", "NECTA": "N", "NMNECTA": "N", "CD": "0104", "SLDL": "01034", "SLDU": "01009", "SCHOOLYEAR": "2018-2019"}, "geometry": {"type": "Point", "coordinates": [-86.32089978, 34.17754245100008]}}, {"type": "Feature", "properties": {"FID_": 21, "NCESSCH": "010000602209", "LEAID": "0100006", "NAME": "Asbury Elementary School", "OPSTFIPS": "01", "STREET": "1966 Asbury Road", "CITY": "Albertville", "STATE": "AL", "ZIP": "35951", "STFIP": "01", "CNTY": "01095", "NMCNTY": "Marshall County", "LOCALE": "42", "LAT": 34.362734, "LON": -86.141422, "CBSA": "10700", "NMCBSA": "Albertville, AL", "CBSATYPE": "2", "CSA": "290", "NMCSA": "Huntsville-Decatur-Albertville, AL", "NECTA": "N", "NMNECTA": "N", "CD": "0104", "SLDL": "01026", "SLDU": "01009", "SCHOOLYEAR": "2018-2019"}, "geometry": {"type": "Point", "coordinates": [-86.14142673999999, 34.36274049600007]}}, {"type": "Feature", "properties": {"FID_": 22, "NCESSCH": "010000700091", "LEAID": "0100007", "NAME": "Trace Crossings Elementary School", "OPSTFIPS": "01", "STREET": "5454 Learning Lane", "CITY": "Hoover", "STATE": "AL", "ZIP": "35244", "STFIP": "01", "CNTY": "01073", "NMCNTY": "Jefferson County", "LOCALE": "13", "LAT": 33.340886, "LON": -86.844733, "CBSA": "13820", "NMCBSA": "Birmingham-Hoover, AL", "CBSATYPE": "1", "CSA": "142", "NMCSA": "Birmingham-Hoover-Talladega, AL", "NECTA": "N", "NMNECTA": "N", "CD": "0106", "SLDL": "01015", "SLDU": "01016", "SCHOOLYEAR": "2018-2019"}, "geometry": {"type": "Point", "coordinates": [-86.84473788299994, 33.34089225500003]}}, {"type": "Feature", "properties": {"FID_": 23, "NCESSCH": "010000700248", "LEAID": "0100007", "NAME": "Greystone Elementary School", "OPSTFIPS": "01", "STREET": "300 Village Street", "CITY": "Hoover", "STATE": "AL", "ZIP": "35242", "STFIP": "01", "CNTY": "01117", "NMCNTY": "Shelby County", "LOCALE": "13", "LAT": 33.413047, "LON": -86.658547, "CBSA": "13820", "NMCBSA": "Birmingham-Hoover, AL", "CBSATYPE": "1", "CSA": "142", "NMCSA": "Birmingham-Hoover-Talladega, AL", "NECTA": "N", "NMNECTA": "N", "CD": "0106", "SLDL": "01045", "SLDU": "01015", "SCHOOLYEAR": "2018-2019"}, "geometry": {"type": "Point", "coordinates": [-86.65855183399998, 33.413053277000074]}}, {"type": "Feature", "properties": {"FID_": 24, "NCESSCH": "010000700251", "LEAID": "0100007", "NAME": "Hoover High School", "OPSTFIPS": "01", "STREET": "1000 Buccaneer Drive", "CITY": "Hoover", "STATE": "AL", "ZIP": "35244", "STFIP": "01", "CNTY": "01073", "NMCNTY": "Jefferson County", "LOCALE": "13", "LAT": 33.34437, "LON": -86.837683, "CBSA": "13820", "NMCBSA": "Birmingham-Hoover, AL", "CBSATYPE": "1", "CSA": "142", "NMCSA": "Birmingham-Hoover-Talladega, AL", "NECTA": "N", "NMNECTA": "N", "CD": "0106", "SLDL": "01015", "SLDU": "01016", "SCHOOLYEAR": "2018-2019"}, "geometry": {"type": "Point", "coordinates": [-86.83768788099997, 33.34437625600003]}}, {"type": "Feature", "properties": {"FID_": 25, "NCESSCH": "010000700337", "LEAID": "0100007", "NAME": "Berry Middle School", "OPSTFIPS": "01", "STREET": "4500 Jaguar Dr", "CITY": "Hoover", "STATE": "AL", "ZIP": "35242", "STFIP": "01", "CNTY": "01117", "NMCNTY": "Shelby County", "LOCALE": "13", "LAT": 33.395648, "LON": -86.73218, "CBSA": "13820", "NMCBSA": "Birmingham-Hoover, AL", "CBSATYPE": "1", "CSA": "142", "NMCSA": "Birmingham-Hoover-Talladega, AL", "NECTA": "N", "NMNECTA": "N", "CD": "0106", "SLDL": "01043", "SLDU": "01016", "SCHOOLYEAR": "2018-2019"}, "geometry": {"type": "Point", "coordinates": [-86.73218485399997, 33.39565427100007]}}, {"type": "Feature", "properties": {"FID_": 26, "NCESSCH": "010000700342", "LEAID": "0100007", "NAME": "South Shades Crest Elementary School", "OPSTFIPS": "01", "STREET": "3770 South Shades Crest Rd", "CITY": "Hoover", "STATE": "AL", "ZIP": "35244", "STFIP": "01", "CNTY": "01073", "NMCNTY": "Jefferson County", "LOCALE": "13", "LAT": 33.337527, "LON": -86.87839, "CBSA": "13820", "NMCBSA": "Birmingham-Hoover, AL", "CBSATYPE": "1", "CSA": "142", "NMCSA": "Birmingham-Hoover-Talladega, AL", "NECTA": "N", "NMNECTA": "N", "CD": "0106", "SLDL": "01015", "SLDU": "01016", "SCHOOLYEAR": "2018-2019"}, "geometry": {"type": "Point", "coordinates": [-86.87839489199996, 33.33753325400005]}}, {"type": "Feature", "properties": {"FID_": 27, "NCESSCH": "010000701422", "LEAID": "0100007", "NAME": "Robert F Bumpus Middle School", "OPSTFIPS": "01", "STREET": "6055 Flemming Parkway", "CITY": "Hoover", "STATE": "AL", "ZIP": "35244", "STFIP": "01", "CNTY": "01117", "NMCNTY": "Shelby County", "LOCALE": "41", "LAT": 33.330923, "LON": -86.854796, "CBSA": "13820", "NMCBSA": "Birmingham-Hoover, AL", "CBSATYPE": "1", "CSA": "142", "NMCSA": "Birmingham-Hoover-Talladega, AL", "NECTA": "N", "NMNECTA": "N", "CD": "0106", "SLDL": "01015", "SLDU": "01014", "SCHOOLYEAR": "2018-2019"}, "geometry": {"type": "Point", "coordinates": [-86.85480088499997, 33.33092925200003]}}, {"type": "Feature", "properties": {"FID_": 28, "NCESSCH": "010000701456", "LEAID": "0100007", "NAME": "Spain Park High School", "OPSTFIPS": "01", "STREET": "4700 Jaguar Drive", "CITY": "Hoover", "STATE": "AL", "ZIP": "35242", "STFIP": "01", "CNTY": "01117", "NMCNTY": "Shelby County", "LOCALE": "13", "LAT": 33.39271, "LON": -86.728785, "CBSA": "13820", "NMCBSA": "Birmingham-Hoover, AL", "CBSATYPE": "1", "CSA": "142", "NMCSA": "Birmingham-Hoover-Talladega, AL", "NECTA": "N", "NMNECTA": "N", "CD": "0106", "SLDL": "01043", "SLDU": "01016", "SCHOOLYEAR": "2018-2019"}, "geometry": {"type": "Point", "coordinates": [-86.72878985299997, 33.39271627100004]}}, {"type": "Feature", "properties": {"FID_": 29, "NCESSCH": "010000701483", "LEAID": "0100007", "NAME": "Deer Valley Elementary School", "OPSTFIPS": "01", "STREET": "4990 Ross Bridge Parkway", "CITY": "Hoover", "STATE": "AL", "ZIP": "35226", "STFIP": "01", "CNTY": "01073", "NMCNTY": "Jefferson County", "LOCALE": "13", "LAT": 33.363896, "LON": -86.867364, "CBSA": "13820", "NMCBSA": "Birmingham-Hoover, AL", "CBSATYPE": "1", "CSA": "142", "NMCSA": "Birmingham-Hoover-Talladega, AL", "NECTA": "N", "NMNECTA": "N", "CD": "0106", "SLDL": "01046", "SLDU": "01016", "SCHOOLYEAR": "2018-2019"}, "geometry": {"type": "Point", "coordinates": [-86.86736889099996, 33.36390225900004]}}, {"type": "Feature", "properties": {"FID_": 30, "NCESSCH": "010000701738", "LEAID": "0100007", "NAME": "Bluff Park Elementary School", "OPSTFIPS": "01", "STREET": "569 Park Avenue", "CITY": "Hoover", "STATE": "AL", "ZIP": "35226", "STFIP": "01", "CNTY": "01073", "NMCNTY": "Jefferson County", "LOCALE": "13", "LAT": 33.409579, "LON": -86.853755, "CBSA": "13820", "NMCBSA": "Birmingham-Hoover, AL", "CBSATYPE": "1", "CSA": "142", "NMCSA": "Birmingham-Hoover-Talladega, AL", "NECTA": "N", "NMNECTA": "N", "CD": "0106", "SLDL": "01046", "SLDU": "01016", "SCHOOLYEAR": "2018-2019"}, "geometry": {"type": "Point", "coordinates": [-86.85375988999994, 33.40958526900005]}}, {"type": "Feature", "properties": {"FID_": 31, "NCESSCH": "010000701739", "LEAID": "0100007", "NAME": "Green Valley Elementary School", "OPSTFIPS": "01", "STREET": "3200 Old Columbiana Rd", "CITY": "Hoover", "STATE": "AL", "ZIP": "35226", "STFIP": "01", "CNTY": "01073", "NMCNTY": "Jefferson County", "LOCALE": "13", "LAT": 33.395712, "LON": -86.808822, "CBSA": "13820", "NMCBSA": "Birmingham-Hoover, AL", "CBSATYPE": "1", "CSA": "142", "NMCSA": "Birmingham-Hoover-Talladega, AL", "NECTA": "N", "NMNECTA": "N", "CD": "0106", "SLDL": "01047", "SLDU": "01016", "SCHOOLYEAR": "2018-2019"}, "geometry": {"type": "Point", "coordinates": [-86.80882687599996, 33.39571826800005]}}, {"type": "Feature", "properties": {"FID_": 32, "NCESSCH": "010000701740", "LEAID": "0100007", "NAME": "Gwin Elementary School", "OPSTFIPS": "01", "STREET": "1580 Patton Chapel Road", "CITY": "Hoover", "STATE": "AL", "ZIP": "35226", "STFIP": "01", "CNTY": "01073", "NMCNTY": "Jefferson County", "LOCALE": "13", "LAT": 33.388151, "LON": -86.831233, "CBSA": "13820", "NMCBSA": "Birmingham-Hoover, AL", "CBSATYPE": "1", "CSA": "142", "NMCSA": "Birmingham-Hoover-Talladega, AL", "NECTA": "N", "NMNECTA": "N", "CD": "0106", "SLDL": "01047", "SLDU": "01016", "SCHOOLYEAR": "2018-2019"}, "geometry": {"type": "Point", "coordinates": [-86.83123788099994, 33.388157266000064]}}, {"type": "Feature", "properties": {"FID_": 33, "NCESSCH": "010000701741", "LEAID": "0100007", "NAME": "Ira F Simmons Middle School", "OPSTFIPS": "01", "STREET": "1575 Patton Chapel Road", "CITY": "Hoover", "STATE": "AL", "ZIP": "35226", "STFIP": "01", "CNTY": "01073", "NMCNTY": "Jefferson County", "LOCALE": "13", "LAT": 33.387895, "LON": -86.833672, "CBSA": "13820", "NMCBSA": "Birmingham-Hoover, AL", "CBSATYPE": "1", "CSA": "142", "NMCSA": "Birmingham-Hoover-Talladega, AL", "NECTA": "N", "NMNECTA": "N", "CD": "0106", "SLDL": "01046", "SLDU": "01016", "SCHOOLYEAR": "2018-2019"}, "geometry": {"type": "Point", "coordinates": [-86.83367688199996, 33.38790126600003]}}, {"type": "Feature", "properties": {"FID_": 34, "NCESSCH": "010000701742", "LEAID": "0100007", "NAME": "Rocky Ridge Elementary School", "OPSTFIPS": "01", "STREET": "2876 Old Rocky Ridge Rd", "CITY": "Hoover", "STATE": "AL", "ZIP": "35243", "STFIP": "01", "CNTY": "01073", "NMCNTY": "Jefferson County", "LOCALE": "13", "LAT": 33.409144, "LON": -86.766806, "CBSA": "13820", "NMCBSA": "Birmingham-Hoover, AL", "CBSATYPE": "1", "CSA": "142", "NMCSA": "Birmingham-Hoover-Talladega, AL", "NECTA": "N", "NMNECTA": "N", "CD": "0106", "SLDL": "01047", "SLDU": "01016", "SCHOOLYEAR": "2018-2019"}, "geometry": {"type": "Point", "coordinates": [-86.76681086399998, 33.40915027200003]}}, {"type": "Feature", "properties": {"FID_": 35, "NCESSCH": "010000701743", "LEAID": "0100007", "NAME": "Shades Mountain Elementary School", "OPSTFIPS": "01", "STREET": "2250 Sumpter St", "CITY": "Hoover", "STATE": "AL", "ZIP": "35226", "STFIP": "01", "CNTY": "01073", "NMCNTY": "Jefferson County", "LOCALE": "13", "LAT": 33.426801, "LON": -86.824411, "CBSA": "13820", "NMCBSA": "Birmingham-Hoover, AL", "CBSATYPE": "1", "CSA": "142", "NMCSA": "Birmingham-Hoover-Talladega, AL", "NECTA": "N", "NMNECTA": "N", "CD": "0106", "SLDL": "01046", "SLDU": "01016", "SCHOOLYEAR": "2018-2019"}, "geometry": {"type": "Point", "coordinates": [-86.82441588199998, 33.426807274000055]}}, {"type": "Feature", "properties": {"FID_": 36, "NCESSCH": "010000702091", "LEAID": "0100007", "NAME": "Riverchase Elementary School", "OPSTFIPS": "01", "STREET": "1950 Old Montgomery Highway", "CITY": "Hoover", "STATE": "AL", "ZIP": "35244", "STFIP": "01", "CNTY": "01117", "NMCNTY": "Shelby County", "LOCALE": "13", "LAT": 33.359591, "LON": -86.812865, "CBSA": "13820", "NMCBSA": "Birmingham-Hoover, AL", "CBSATYPE": "1", "CSA": "142", "NMCSA": "Birmingham-Hoover-Talladega, AL", "NECTA": "N", "NMNECTA": "N", "CD": "0106", "SLDL": "01043", "SLDU": "01016", "SCHOOLYEAR": "2018-2019"}, "geometry": {"type": "Point", "coordinates": [-86.81286987499999, 33.359597260000044]}}, {"type": "Feature", "properties": {"FID_": 37, "NCESSCH": "010000702186", "LEAID": "0100007", "NAME": "Brocks Gap Intermediate School", "OPSTFIPS": "01", "STREET": "1730 Lake Cyrus Club Drive", "CITY": "Hoover", "STATE": "AL", "ZIP": "35244", "STFIP": "01", "CNTY": "01073", "NMCNTY": "Jefferson County", "LOCALE": "13", "LAT": 33.344122, "LON": -86.88919, "CBSA": "13820", "NMCBSA": "Birmingham-Hoover, AL", "CBSATYPE": "1", "CSA": "142", "NMCSA": "Birmingham-Hoover-Talladega, AL", "NECTA": "N", "NMNECTA": "N", "CD": "0106", "SLDL": "01015", "SLDU": "01016", "SCHOOLYEAR": "2018-2019"}, "geometry": {"type": "Point", "coordinates": [-86.88919489599994, 33.344128254000054]}}, {"type": "Feature", "properties": {"FID_": 38, "NCESSCH": "010000702359", "LEAID": "0100007", "NAME": "Crossroads School", "OPSTFIPS": "01", "STREET": "1085 Buccaneer Drive", "CITY": "Hoover", "STATE": "AL", "ZIP": "35244", "STFIP": "01", "CNTY": "01073", "NMCNTY": "Jefferson County", "LOCALE": "13", "LAT": 33.337604, "LON": -86.840932, "CBSA": "13820", "NMCBSA": "Birmingham-Hoover, AL", "CBSATYPE": "1", "CSA": "142", "NMCSA": "Birmingham-Hoover-Talladega, AL", "NECTA": "N", "NMNECTA": "N", "CD": "0106", "SLDL": "01015", "SLDU": "01016", "SCHOOLYEAR": "2018-2019"}, "geometry": {"type": "Point", "coordinates": [-86.84093688199994, 33.33761025500007]}}, {"type": "Feature", "properties": {"FID_": 39, "NCESSCH": "010000800303", "LEAID": "0100008", "NAME": "Horizon Elementary School", "OPSTFIPS": "01", "STREET": "7855 Old Madison Pike", "CITY": "Madison", "STATE": "AL", "ZIP": "35758", "STFIP": "01", "CNTY": "01089", "NMCNTY": "Madison County", "LOCALE": "21", "LAT": 34.705817, "LON": -86.713709, "CBSA": "26620", "NMCBSA": "Huntsville, AL", "CBSATYPE": "1", "CSA": "290", "NMCSA": "Huntsville-Decatur-Albertville, AL", "NECTA": "N", "NMNECTA": "N", "CD": "0105", "SLDL": "01010", "SLDU": "01002", "SCHOOLYEAR": "2018-2019"}, "geometry": {"type": "Point", "coordinates": [-86.71371392399999, 34.705823545000044]}}, {"type": "Feature", "properties": {"FID_": 40, "NCESSCH": "010000800495", "LEAID": "0100008", "NAME": "Discovery Middle School", "OPSTFIPS": "01", "STREET": "1304 Hughes Rd", "CITY": "Madison", "STATE": "AL", "ZIP": "35758", "STFIP": "01", "CNTY": "01089", "NMCNTY": "Madison County", "LOCALE": "21", "LAT": 34.740814, "LON": -86.742697, "CBSA": "26620", "NMCBSA": "Huntsville, AL", "CBSATYPE": "1", "CSA": "290", "NMCSA": "Huntsville-Decatur-Albertville, AL", "NECTA": "N", "NMNECTA": "N", "CD": "0105", "SLDL": "01025", "SLDU": "01002", "SCHOOLYEAR": "2018-2019"}, "geometry": {"type": "Point", "coordinates": [-86.74270193299998, 34.740820550000024]}}, {"type": "Feature", "properties": {"FID_": 41, "NCESSCH": "010000800831", "LEAID": "0100008", "NAME": "Bob Jones High School", "OPSTFIPS": "01", "STREET": "650 Hughes Rd", "CITY": "Madison", "STATE": "AL", "ZIP": "35758", "STFIP": "01", "CNTY": "01089", "NMCNTY": "Madison County", "LOCALE": "21", "LAT": 34.719158, "LON": -86.742545, "CBSA": "26620", "NMCBSA": "Huntsville, AL", "CBSATYPE": "1", "CSA": "290", "NMCSA": "Huntsville-Decatur-Albertville, AL", "NECTA": "N", "NMNECTA": "N", "CD": "0105", "SLDL": "01010", "SLDU": "01002", "SCHOOLYEAR": "2018-2019"}, "geometry": {"type": "Point", "coordinates": [-86.74254993199997, 34.71916454700005]}}, {"type": "Feature", "properties": {"FID_": 42, "NCESSCH": "010000800839", "LEAID": "0100008", "NAME": "Madison Elementary School", "OPSTFIPS": "01", "STREET": "17 College St", "CITY": "Madison", "STATE": "AL", "ZIP": "35758", "STFIP": "01", "CNTY": "01089", "NMCNTY": "Madison County", "LOCALE": "21", "LAT": 34.697454, "LON": -86.750464, "CBSA": "26620", "NMCBSA": "Huntsville, AL", "CBSATYPE": "1", "CSA": "290", "NMCSA": "Huntsville-Decatur-Albertville, AL", "NECTA": "N", "NMNECTA": "N", "CD": "0105", "SLDL": "01010", "SLDU": "01002", "SCHOOLYEAR": "2018-2019"}, "geometry": {"type": "Point", "coordinates": [-86.75046893299998, 34.697460542000044]}}, {"type": "Feature", "properties": {"FID_": 43, "NCESSCH": "010000800851", "LEAID": "0100008", "NAME": "West Madison Elementary School", "OPSTFIPS": "01", "STREET": "4976 Wall Triana Hwy", "CITY": "Madison", "STATE": "AL", "ZIP": "35758", "STFIP": "01", "CNTY": "01089", "NMCNTY": "Madison County", "LOCALE": "21", "LAT": 34.721194, "LON": -86.751155, "CBSA": "26620", "NMCBSA": "Huntsville, AL", "CBSATYPE": "1", "CSA": "290", "NMCSA": "Huntsville-Decatur-Albertville, AL", "NECTA": "N", "NMNECTA": "N", "CD": "0105", "SLDL": "01025", "SLDU": "01002", "SCHOOLYEAR": "2018-2019"}, "geometry": {"type": "Point", "coordinates": [-86.75115993499998, 34.721200546000034]}}, {"type": "Feature", "properties": {"FID_": 44, "NCESSCH": "010000801423", "LEAID": "0100008", "NAME": "Heritage Elementary School", "OPSTFIPS": "01", "STREET": "11775 County Line Rd", "CITY": "Madison", "STATE": "AL", "ZIP": "35758", "STFIP": "01", "CNTY": "01089", "NMCNTY": "Madison County", "LOCALE": "21", "LAT": 34.721075, "LON": -86.783233, "CBSA": "26620", "NMCBSA": "Huntsville, AL", "CBSATYPE": "1", "CSA": "290", "NMCSA": "Huntsville-Decatur-Albertville, AL", "NECTA": "N", "NMNECTA": "N", "CD": "0105", "SLDL": "01025", "SLDU": "01002", "SCHOOLYEAR": "2018-2019"}, "geometry": {"type": "Point", "coordinates": [-86.78323794399995, 34.72108154500006]}}, {"type": "Feature", "properties": {"FID_": 45, "NCESSCH": "010000801485", "LEAID": "0100008", "NAME": "Rainbow Elementary School", "OPSTFIPS": "01", "STREET": "50 Nance Rd", "CITY": "Madison", "STATE": "AL", "ZIP": "35758", "STFIP": "01", "CNTY": "01089", "NMCNTY": "Madison County", "LOCALE": "21", "LAT": 34.751223, "LON": -86.733057, "CBSA": "26620", "NMCBSA": "Huntsville, AL", "CBSATYPE": "1", "CSA": "290", "NMCSA": "Huntsville-Decatur-Albertville, AL", "NECTA": "N", "NMNECTA": "N", "CD": "0105", "SLDL": "01025", "SLDU": "01002", "SCHOOLYEAR": "2018-2019"}, "geometry": {"type": "Point", "coordinates": [-86.73306193199994, 34.75122955300003]}}, {"type": "Feature", "properties": {"FID_": 46, "NCESSCH": "010000801798", "LEAID": "0100008", "NAME": "Liberty Middle School", "OPSTFIPS": "01", "STREET": "281 Dock Murphy Dr", "CITY": "Madison", "STATE": "AL", "ZIP": "35758", "STFIP": "01", "CNTY": "01089", "NMCNTY": "Madison County", "LOCALE": "21", "LAT": 34.73367, "LON": -86.779197, "CBSA": "26620", "NMCBSA": "Huntsville, AL", "CBSATYPE": "1", "CSA": "290", "NMCSA": "Huntsville-Decatur-Albertville, AL", "NECTA": "N", "NMNECTA": "N", "CD": "0105", "SLDL": "01025", "SLDU": "01002", "SCHOOLYEAR": "2018-2019"}, "geometry": {"type": "Point", "coordinates": [-86.77920194399996, 34.73367654700007]}}, {"type": "Feature", "properties": {"FID_": 47, "NCESSCH": "010000802097", "LEAID": "0100008", "NAME": "Columbia Elementary School", "OPSTFIPS": "01", "STREET": "667 Balch Road", "CITY": "Madison", "STATE": "AL", "ZIP": "35758", "STFIP": "01", "CNTY": "01089", "NMCNTY": "Madison County", "LOCALE": "21", "LAT": 34.734315, "LON": -86.766046, "CBSA": "26620", "NMCBSA": "Huntsville, AL", "CBSATYPE": "1", "CSA": "290", "NMCSA": "Huntsville-Decatur-Albertville, AL", "NECTA": "N", "NMNECTA": "N", "CD": "0105", "SLDL": "01025", "SLDU": "01002", "SCHOOLYEAR": "2018-2019"}, "geometry": {"type": "Point", "coordinates": [-86.76605093999996, 34.734321548000025]}}, {"type": "Feature", "properties": {"FID_": 48, "NCESSCH": "010000802133", "LEAID": "0100008", "NAME": "Mill Creek Elementary School", "OPSTFIPS": "01", "STREET": "847 Mill Road", "CITY": "Madison", "STATE": "AL", "ZIP": "35758", "STFIP": "01", "CNTY": "01089", "NMCNTY": "Madison County", "LOCALE": "21", "LAT": 34.701186, "LON": -86.772013, "CBSA": "26620", "NMCBSA": "Huntsville, AL", "CBSATYPE": "1", "CSA": "290", "NMCSA": "Huntsville-Decatur-Albertville, AL", "NECTA": "N", "NMNECTA": "N", "CD": "0105", "SLDL": "01010", "SLDU": "01002", "SCHOOLYEAR": "2018-2019"}, "geometry": {"type": "Point", "coordinates": [-86.77201793999996, 34.70119254100007]}}, {"type": "Feature", "properties": {"FID_": 49, "NCESSCH": "010000802198", "LEAID": "0100008", "NAME": "James Clemens High School", "OPSTFIPS": "01", "STREET": "11306 County Line Road", "CITY": "Madison", "STATE": "AL", "ZIP": "35756", "STFIP": "01", "CNTY": "01083", "NMCNTY": "Limestone County", "LOCALE": "21", "LAT": 34.705886, "LON": -86.791802, "CBSA": "26620", "NMCBSA": "Huntsville, AL", "CBSATYPE": "1", "CSA": "290", "NMCSA": "Huntsville-Decatur-Albertville, AL", "NECTA": "N", "NMNECTA": "N", "CD": "0105", "SLDL": "01004", "SLDU": "01003", "SCHOOLYEAR": "2018-2019"}, "geometry": {"type": "Point", "coordinates": [-86.79180694499996, 34.705892541000026]}}, {"type": "Feature", "properties": {"FID_": 50, "NCESSCH": "010000901403", "LEAID": "0100009", "NAME": "Alabama School For Deaf", "OPSTFIPS": "01", "STREET": "205 E South Street", "CITY": "Talladega", "STATE": "AL", "ZIP": "35160", "STFIP": "01", "CNTY": "01121", "NMCNTY": "Talladega County", "LOCALE": "32", "LAT": 33.43196, "LON": -86.098534, "CBSA": "45180", "NMCBSA": "Talladega-Sylacauga, AL", "CBSATYPE": "2", "CSA": "142", "NMCSA": "Birmingham-Hoover-Talladega, AL", "NECTA": "N", "NMNECTA": "N", "CD": "0103", "SLDL": "01035", "SLDU": "01011", "SCHOOLYEAR": "2018-2019"}, "geometry": {"type": "Point", "coordinates": [-86.09853867699996, 33.431966302000035]}}, {"type": "Feature", "properties": {"FID_": 51, "NCESSCH": "010000901404", "LEAID": "0100009", "NAME": "Alabama School For Blind", "OPSTFIPS": "01", "STREET": "705 E South Street", "CITY": "Talladega", "STATE": "AL", "ZIP": "35160", "STFIP": "01", "CNTY": "01121", "NMCNTY": "Talladega County", "LOCALE": "32", "LAT": 33.433574, "LON": -86.089689, "CBSA": "45180", "NMCBSA": "Talladega-Sylacauga, AL", "CBSATYPE": "2", "CSA": "142", "NMCSA": "Birmingham-Hoover-Talladega, AL", "NECTA": "N", "NMNECTA": "N", "CD": "0103", "SLDL": "01035", "SLDU": "01011", "SCHOOLYEAR": "2018-2019"}, "geometry": {"type": "Point", "coordinates": [-86.08969367399999, 33.43358030400003]}}, {"type": "Feature", "properties": {"FID_": 52, "NCESSCH": "010000901405", "LEAID": "0100009", "NAME": "Helen Keller School", "OPSTFIPS": "01", "STREET": "1221 Cochran Ave", "CITY": "Talladega", "STATE": "AL", "ZIP": "35161", "STFIP": "01", "CNTY": "01121", "NMCNTY": "Talladega County", "LOCALE": "32", "LAT": 33.427279, "LON": -86.117477, "CBSA": "45180", "NMCBSA": "Talladega-Sylacauga, AL", "CBSATYPE": "2", "CSA": "142", "NMCSA": "Birmingham-Hoover-Talladega, AL", "NECTA": "N", "NMNECTA": "N", "CD": "0103", "SLDL": "01032", "SLDU": "01015", "SCHOOLYEAR": "2018-2019"}, "geometry": {"type": "Point", "coordinates": [-86.11748168099996, 33.42728530100004]}}, {"type": "Feature", "properties": {"FID_": 53, "NCESSCH": "010000901406", "LEAID": "0100009", "NAME": "E H Gentry Technical Facility", "OPSTFIPS": "01", "STREET": "1105 Fort Lashley", "CITY": "Talladega", "STATE": "AL", "ZIP": "35160", "STFIP": "01", "CNTY": "01121", "NMCNTY": "Talladega County", "LOCALE": "32", "LAT": 33.42544, "LON": -86.117706, "CBSA": "45180", "NMCBSA": "Talladega-Sylacauga, AL", "CBSATYPE": "2", "CSA": "142", "NMCSA": "Birmingham-Hoover-Talladega, AL", "NECTA": "N", "NMNECTA": "N", "CD": "0103", "SLDL": "01032", "SLDU": "01015", "SCHOOLYEAR": "2018-2019"}, "geometry": {"type": "Point", "coordinates": [-86.11771068199994, 33.42544630100008]}}, {"type": "Feature", "properties": {"FID_": 54, "NCESSCH": "010000902231", "LEAID": "0100009", "NAME": "Child Count Only", "OPSTFIPS": "01", "STREET": "1001 Monroe St", "CITY": "Huntsville", "STATE": "AL", "ZIP": "35801", "STFIP": "01", "CNTY": "01089", "NMCNTY": "Madison County", "LOCALE": "12", "LAT": 34.722432, "LON": -86.590455, "CBSA": "26620", "NMCBSA": "Huntsville, AL", "CBSATYPE": "1", "CSA": "290", "NMCSA": "Huntsville-Decatur-Albertville, AL", "NECTA": "N", "NMNECTA": "N", "CD": "0105", "SLDL": "01019", "SLDU": "01007", "SCHOOLYEAR": "2018-2019"}, "geometry": {"type": "Point", "coordinates": [-86.59045988899999, 34.722438553000075]}}, {"type": "Feature", "properties": {"FID_": 55, "NCESSCH": "010001102094", "LEAID": "0100011", "NAME": "Leeds Elementary School", "OPSTFIPS": "01", "STREET": "950 Ashville Road", "CITY": "Leeds", "STATE": "AL", "ZIP": "35094", "STFIP": "01", "CNTY": "01073", "NMCNTY": "Jefferson County", "LOCALE": "21", "LAT": 33.545156, "LON": -86.548094, "CBSA": "13820", "NMCBSA": "Birmingham-Hoover, AL", "CBSATYPE": "1", "CSA": "142", "NMCSA": "Birmingham-Hoover-Talladega, AL", "NECTA": "N", "NMNECTA": "N", "CD": "0106", "SLDL": "01045", "SLDU": "01015", "SCHOOLYEAR": "2018-2019"}, "geometry": {"type": "Point", "coordinates": [-86.54809880999994, 33.54516231000002]}}, {"type": "Feature", "properties": {"FID_": 56, "NCESSCH": "010001102095", "LEAID": "0100011", "NAME": "Leeds Middle School", "OPSTFIPS": "01", "STREET": "1771 Whitmire Street", "CITY": "Leeds", "STATE": "AL", "ZIP": "35094", "STFIP": "01", "CNTY": "01073", "NMCNTY": "Jefferson County", "LOCALE": "21", "LAT": 33.54936, "LON": -86.536894, "CBSA": "13820", "NMCBSA": "Birmingham-Hoover, AL", "CBSATYPE": "1", "CSA": "142", "NMCSA": "Birmingham-Hoover-Talladega, AL", "NECTA": "N", "NMNECTA": "N", "CD": "0106", "SLDL": "01045", "SLDU": "01015", "SCHOOLYEAR": "2018-2019"}, "geometry": {"type": "Point", "coordinates": [-86.53689880699994, 33.54936631100003]}}, {"type": "Feature", "properties": {"FID_": 57, "NCESSCH": "010001102096", "LEAID": "0100011", "NAME": "Leeds High School", "OPSTFIPS": "01", "STREET": "1500 Greenwave Drive", "CITY": "Leeds", "STATE": "AL", "ZIP": "35094", "STFIP": "01", "CNTY": "01073", "NMCNTY": "Jefferson County", "LOCALE": "21", "LAT": 33.547574, "LON": -86.574182, "CBSA": "13820", "NMCBSA": "Birmingham-Hoover, AL", "CBSATYPE": "1", "CSA": "142", "NMCSA": "Birmingham-Hoover-Talladega, AL", "NECTA": "N", "NMNECTA": "N", "CD": "0106", "SLDL": "01045", "SLDU": "01015", "SCHOOLYEAR": "2018-2019"}, "geometry": {"type": "Point", "coordinates": [-86.57418681699994, 33.54758030900007]}}, {"type": "Feature", "properties": {"FID_": 58, "NCESSCH": "010001102430", "LEAID": "0100011", "NAME": "Leeds Primary School", "OPSTFIPS": "01", "STREET": "991 Park Drive", "CITY": "Leeds", "STATE": "AL", "ZIP": "35094", "STFIP": "01", "CNTY": "01073", "NMCNTY": "Jefferson County", "LOCALE": "21", "LAT": 33.54287, "LON": -86.564311, "CBSA": "13820", "NMCBSA": "Birmingham-Hoover, AL", "CBSATYPE": "1", "CSA": "142", "NMCSA": "Birmingham-Hoover-Talladega, AL", "NECTA": "N", "NMNECTA": "N", "CD": "0106", "SLDL": "01045", "SLDU": "01015", "SCHOOLYEAR": "2018-2019"}, "geometry": {"type": "Point", "coordinates": [-86.56431581499999, 33.542876308000075]}}, {"type": "Feature", "properties": {"FID_": 59, "NCESSCH": "010001200123", "LEAID": "0100012", "NAME": "Boaz Middle School", "OPSTFIPS": "01", "STREET": "140 Newt Parker Dr", "CITY": "Boaz", "STATE": "AL", "ZIP": "35957", "STFIP": "01", "CNTY": "01095", "NMCNTY": "Marshall County", "LOCALE": "32", "LAT": 34.212226, "LON": -86.157934, "CBSA": "10700", "NMCBSA": "Albertville, AL", "CBSATYPE": "2", "CSA": "290", "NMCSA": "Huntsville-Decatur-Albertville, AL", "NECTA": "N", "NMNECTA": "N", "CD": "0104", "SLDL": "01026", "SLDU": "01009", "SCHOOLYEAR": "2018-2019"}, "geometry": {"type": "Point", "coordinates": [-86.15793873699994, 34.212232465000056]}}, {"type": "Feature", "properties": {"FID_": 60, "NCESSCH": "010001200874", "LEAID": "0100012", "NAME": "Boaz High School", "OPSTFIPS": "01", "STREET": "907 Brown St", "CITY": "Boaz", "STATE": "AL", "ZIP": "35957", "STFIP": "01", "CNTY": "01095", "NMCNTY": "Marshall County", "LOCALE": "32", "LAT": 34.211786, "LON": -86.163919, "CBSA": "10700", "NMCBSA": "Albertville, AL", "CBSATYPE": "2", "CSA": "290", "NMCSA": "Huntsville-Decatur-Albertville, AL", "NECTA": "N", "NMNECTA": "N", "CD": "0104", "SLDL": "01026", "SLDU": "01009", "SCHOOLYEAR": "2018-2019"}, "geometry": {"type": "Point", "coordinates": [-86.16392373799994, 34.21179246500003]}}, {"type": "Feature", "properties": {"FID_": 61, "NCESSCH": "010001200884", "LEAID": "0100012", "NAME": "Corley Elementary School", "OPSTFIPS": "01", "STREET": "505 Mount Vernon Rd", "CITY": "Boaz", "STATE": "AL", "ZIP": "35957", "STFIP": "01", "CNTY": "01095", "NMCNTY": "Marshall County", "LOCALE": "32", "LAT": 34.204839, "LON": -86.175473, "CBSA": "10700", "NMCBSA": "Albertville, AL", "CBSATYPE": "2", "CSA": "290", "NMCSA": "Huntsville-Decatur-Albertville, AL", "NECTA": "N", "NMNECTA": "N", "CD": "0104", "SLDL": "01026", "SLDU": "01009", "SCHOOLYEAR": "2018-2019"}, "geometry": {"type": "Point", "coordinates": [-86.17547774099995, 34.20484546300003]}}, {"type": "Feature", "properties": {"FID_": 62, "NCESSCH": "010001201630", "LEAID": "0100012", "NAME": "Boaz Intermediate School", "OPSTFIPS": "01", "STREET": "11 Newt Parker Drive", "CITY": "Boaz", "STATE": "AL", "ZIP": "35957", "STFIP": "01", "CNTY": "01095", "NMCNTY": "Marshall County", "LOCALE": "32", "LAT": 34.213525, "LON": -86.161345, "CBSA": "10700", "NMCBSA": "Albertville, AL", "CBSATYPE": "2", "CSA": "290", "NMCSA": "Huntsville-Decatur-Albertville, AL", "NECTA": "N", "NMNECTA": "N", "CD": "0104", "SLDL": "01026", "SLDU": "01009", "SCHOOLYEAR": "2018-2019"}, "geometry": {"type": "Point", "coordinates": [-86.16134973799996, 34.21353146400003]}}, {"type": "Feature", "properties": {"FID_": 63, "NCESSCH": "010001201781", "LEAID": "0100012", "NAME": "Boaz Elementary School", "OPSTFIPS": "01", "STREET": "362 Collier St", "CITY": "Boaz", "STATE": "AL", "ZIP": "35957", "STFIP": "01", "CNTY": "01095", "NMCNTY": "Marshall County", "LOCALE": "32", "LAT": 34.20647, "LON": -86.178087, "CBSA": "10700", "NMCBSA": "Albertville, AL", "CBSATYPE": "2", "CSA": "290", "NMCSA": "Huntsville-Decatur-Albertville, AL", "NECTA": "N", "NMNECTA": "N", "CD": "0104", "SLDL": "01026", "SLDU": "01009", "SCHOOLYEAR": "2018-2019"}, "geometry": {"type": "Point", "coordinates": [-86.17809174099995, 34.20647646300006]}}, {"type": "Feature", "properties": {"FID_": 64, "NCESSCH": "010001300714", "LEAID": "0100013", "NAME": "HewittTrussville Middle School", "OPSTFIPS": "01", "STREET": "5275 Trussville Clay Road", "CITY": "Trussville", "STATE": "AL", "ZIP": "35173", "STFIP": "01", "CNTY": "01073", "NMCNTY": "Jefferson County", "LOCALE": "21", "LAT": 33.655829, "LON": -86.593651, "CBSA": "13820", "NMCBSA": "Birmingham-Hoover, AL", "CBSATYPE": "1", "CSA": "142", "NMCSA": "Birmingham-Hoover-Talladega, AL", "NECTA": "N", "NMNECTA": "N", "CD": "0106", "SLDL": "01044", "SLDU": "01017", "SCHOOLYEAR": "2018-2019"}, "geometry": {"type": "Point", "coordinates": [-86.59365582899994, 33.65583533100005]}}, {"type": "Feature", "properties": {"FID_": 65, "NCESSCH": "010001301498", "LEAID": "0100013", "NAME": "Paine Elementary School", "OPSTFIPS": "01", "STREET": "7600 Gadsden Highway", "CITY": "Trussville", "STATE": "AL", "ZIP": "35173", "STFIP": "01", "CNTY": "01073", "NMCNTY": "Jefferson County", "LOCALE": "21", "LAT": 33.649323, "LON": -86.567607, "CBSA": "13820", "NMCBSA": "Birmingham-Hoover, AL", "CBSATYPE": "1", "CSA": "142", "NMCSA": "Birmingham-Hoover-Talladega, AL", "NECTA": "N", "NMNECTA": "N", "CD": "0106", "SLDL": "01044", "SLDU": "01017", "SCHOOLYEAR": "2018-2019"}, "geometry": {"type": "Point", "coordinates": [-86.56761182199995, 33.64932933000006]}}, {"type": "Feature", "properties": {"FID_": 66, "NCESSCH": "010001301682", "LEAID": "0100013", "NAME": "HewittTrussville High School", "OPSTFIPS": "01", "STREET": "6450 Husky Parkway", "CITY": "Trussville", "STATE": "AL", "ZIP": "35173", "STFIP": "01", "CNTY": "01073", "NMCNTY": "Jefferson County", "LOCALE": "41", "LAT": 33.665684, "LON": -86.590765, "CBSA": "13820", "NMCBSA": "Birmingham-Hoover, AL", "CBSATYPE": "1", "CSA": "142", "NMCSA": "Birmingham-Hoover-Talladega, AL", "NECTA": "N", "NMNECTA": "N", "CD": "0106", "SLDL": "01044", "SLDU": "01017", "SCHOOLYEAR": "2018-2019"}, "geometry": {"type": "Point", "coordinates": [-86.59076982899995, 33.66569033300004]}}, {"type": "Feature", "properties": {"FID_": 67, "NCESSCH": "010001302401", "LEAID": "0100013", "NAME": "Magnolia Elementary School", "OPSTFIPS": "01", "STREET": "5400 Hidden Way Lane", "CITY": "Trussville", "STATE": "AL", "ZIP": "35173", "STFIP": "01", "CNTY": "01073", "NMCNTY": "Jefferson County", "LOCALE": "21", "LAT": 33.599544, "LON": -86.623626, "CBSA": "13820", "NMCBSA": "Birmingham-Hoover, AL", "CBSATYPE": "1", "CSA": "142", "NMCSA": "Birmingham-Hoover-Talladega, AL", "NECTA": "N", "NMNECTA": "N", "CD": "0106", "SLDL": "01044", "SLDU": "01015", "SCHOOLYEAR": "2018-2019"}, "geometry": {"type": "Point", "coordinates": [-86.62363083399998, 33.59955031800007]}}, {"type": "Feature", "properties": {"FID_": 68, "NCESSCH": "010001302402", "LEAID": "0100013", "NAME": "Cahaba Elementary School", "OPSTFIPS": "01", "STREET": "301 Parkway Drive", "CITY": "Trussville", "STATE": "AL", "ZIP": "35173", "STFIP": "01", "CNTY": "01073", "NMCNTY": "Jefferson County", "LOCALE": "21", "LAT": 33.629258, "LON": -86.603955, "CBSA": "13820", "NMCBSA": "Birmingham-Hoover, AL", "CBSATYPE": "1", "CSA": "142", "NMCSA": "Birmingham-Hoover-Talladega, AL", "NECTA": "N", "NMNECTA": "N", "CD": "0106", "SLDL": "01044", "SLDU": "01017", "SCHOOLYEAR": "2018-2019"}, "geometry": {"type": "Point", "coordinates": [-86.60395983099994, 33.629264325000065]}}, {"type": "Feature", "properties": {"FID_": 69, "NCESSCH": "010001501827", "LEAID": "0100015", "NAME": "SafetyNet Academy Minter", "OPSTFIPS": "01", "STREET": "80 Mel Bailey Drive", "CITY": "Minter", "STATE": "AL", "ZIP": "36761", "STFIP": "01", "CNTY": "01047", "NMCNTY": "Dallas County", "LOCALE": "43", "LAT": 32.11162, "LON": -87.077608, "CBSA": "42820", "NMCBSA": "Selma, AL", "CBSATYPE": "2", "CSA": "N", "NMCSA": "N", "NECTA": "N", "NMNECTA": "N", "CD": "0107", "SLDL": "01067", "SLDU": "01023", "SCHOOLYEAR": "2018-2019"}, "geometry": {"type": "Point", "coordinates": [-87.07761288499995, 32.11162598400006]}}, {"type": "Feature", "properties": {"FID_": 70, "NCESSCH": "010001502118", "LEAID": "0100015", "NAME": "Mac Sim Butler Montgomery County Detention Facility", "OPSTFIPS": "01", "STREET": "225 S McDonough St", "CITY": "Montgomery", "STATE": "AL", "ZIP": "36104", "STFIP": "01", "CNTY": "01101", "NMCNTY": "Montgomery County", "LOCALE": "12", "LAT": 32.374794, "LON": -86.304436, "CBSA": "33860", "NMCBSA": "Montgomery, AL", "CBSATYPE": "1", "CSA": "N", "NMCSA": "N", "NECTA": "N", "NMNECTA": "N", "CD": "0102", "SLDL": "01077", "SLDU": "01026", "SCHOOLYEAR": "2018-2019"}, "geometry": {"type": "Point", "coordinates": [-86.30444067999997, 32.37480006800007]}}, {"type": "Feature", "properties": {"FID_": 71, "NCESSCH": "010001502121", "LEAID": "0100015", "NAME": "Safety Net Academy Montgomery", "OPSTFIPS": "01", "STREET": "5906 Carmichael Place", "CITY": "Montgomery", "STATE": "AL", "ZIP": "36117", "STFIP": "01", "CNTY": "01101", "NMCNTY": "Montgomery County", "LOCALE": "12", "LAT": 32.361496, "LON": -86.201852, "CBSA": "33860", "NMCBSA": "Montgomery, AL", "CBSATYPE": "1", "CSA": "N", "NMCSA": "N", "NECTA": "N", "NMNECTA": "N", "CD": "0102", "SLDL": "01076", "SLDU": "01025", "SCHOOLYEAR": "2018-2019"}, "geometry": {"type": "Point", "coordinates": [-86.20185665099996, 32.36150206900004]}}, {"type": "Feature", "properties": {"FID_": 72, "NCESSCH": "010001502126", "LEAID": "0100015", "NAME": "Safety Net Academy Montgomery", "OPSTFIPS": "01", "STREET": "5906 Carmichael Place", "CITY": "Montgomery", "STATE": "AL", "ZIP": "36117", "STFIP": "01", "CNTY": "01101", "NMCNTY": "Montgomery County", "LOCALE": "12", "LAT": 32.361496, "LON": -86.201852, "CBSA": "33860", "NMCBSA": "Montgomery, AL", "CBSATYPE": "1", "CSA": "N", "NMCSA": "N", "NECTA": "N", "NMNECTA": "N", "CD": "0102", "SLDL": "01076", "SLDU": "01025", "SCHOOLYEAR": "2018-2019"}, "geometry": {"type": "Point", "coordinates": [-86.20185665099996, 32.36150206900004]}}, {"type": "Feature", "properties": {"FID_": 73, "NCESSCH": "010001502131", "LEAID": "0100015", "NAME": "Perry Varner Educational and Treatment Facility", "OPSTFIPS": "01", "STREET": "1002 Selfield Rd", "CITY": "Selma", "STATE": "AL", "ZIP": "36703", "STFIP": "01", "CNTY": "01047", "NMCNTY": "Dallas County", "LOCALE": "42", "LAT": 32.442925, "LON": -86.944188, "CBSA": "42820", "NMCBSA": "Selma, AL", "CBSATYPE": "2", "CSA": "N", "NMCSA": "N", "NECTA": "N", "NMNECTA": "N", "CD": "0107", "SLDL": "01067", "SLDU": "01023", "SCHOOLYEAR": "2018-2019"}, "geometry": {"type": "Point", "coordinates": [-86.94419286399994, 32.442931061000024]}}, {"type": "Feature", "properties": {"FID_": 74, "NCESSCH": "010001502458", "LEAID": "0100015", "NAME": "Morgan County System of Services Inc", "OPSTFIPS": "01", "STREET": "2531 Alabama Hwy 20 West", "CITY": "Decatur", "STATE": "AL", "ZIP": "35602", "STFIP": "01", "CNTY": "01103", "NMCNTY": "Morgan County", "LOCALE": "13", "LAT": 34.619189, "LON": -87.038078, "CBSA": "19460", "NMCBSA": "Decatur, AL", "CBSATYPE": "1", "CSA": "290", "NMCSA": "Huntsville-Decatur-Albertville, AL", "NECTA": "N", "NMNECTA": "N", "CD": "0105", "SLDL": "01004", "SLDU": "01003", "SCHOOLYEAR": "2018-2019"}, "geometry": {"type": "Point", "coordinates": [-87.03808301, 34.61919551400007]}}, {"type": "Feature", "properties": {"FID_": 75, "NCESSCH": "010001601828", "LEAID": "0100016", "NAME": "DMH Adolescent Education Program UAB", "OPSTFIPS": "01", "STREET": "CPM C433 1717 6th Avenue South", "CITY": "Birmingham", "STATE": "AL", "ZIP": "35294", "STFIP": "01", "CNTY": "01073", "NMCNTY": "Jefferson County", "LOCALE": "12", "LAT": 33.504855, "LON": -86.803891, "CBSA": "13820", "NMCBSA": "Birmingham-Hoover, AL", "CBSATYPE": "1", "CSA": "142", "NMCSA": "Birmingham-Hoover-Talladega, AL", "NECTA": "N", "NMNECTA": "N", "CD": "0107", "SLDL": "01055", "SLDU": "01018", "SCHOOLYEAR": "2018-2019"}, "geometry": {"type": "Point", "coordinates": [-86.80389588, 33.504861291000054]}}, {"type": "Feature", "properties": {"FID_": 76, "NCESSCH": "010001901830", "LEAID": "0100019", "NAME": "United Ability", "OPSTFIPS": "01", "STREET": "120 Oslo Circle", "CITY": "Birmingham", "STATE": "AL", "ZIP": "35211", "STFIP": "01", "CNTY": "01073", "NMCNTY": "Jefferson County", "LOCALE": "41", "LAT": 33.432125, "LON": -86.873858, "CBSA": "13820", "NMCBSA": "Birmingham-Hoover, AL", "CBSATYPE": "1", "CSA": "142", "NMCSA": "Birmingham-Hoover-Talladega, AL", "NECTA": "N", "NMNECTA": "N", "CD": "0107", "SLDL": "01056", "SLDU": "01018", "SCHOOLYEAR": "2018-2019"}, "geometry": {"type": "Point", "coordinates": [-86.87386289599993, 33.43213127300004]}}, {"type": "Feature", "properties": {"FID_": 77, "NCESSCH": "010002001831", "LEAID": "0100020", "NAME": "The Boyd School", "OPSTFIPS": "01", "STREET": "20856 Eastern Valley Rd", "CITY": "Green Pond", "STATE": "AL", "ZIP": "35074", "STFIP": "01", "CNTY": "01007", "NMCNTY": "Bibb County", "LOCALE": "31", "LAT": 33.22599, "LON": -87.122217, "CBSA": "13820", "NMCBSA": "Birmingham-Hoover, AL", "CBSATYPE": "1", "CSA": "142", "NMCSA": "Birmingham-Hoover-Talladega, AL", "NECTA": "N", "NMNECTA": "N", "CD": "0106", "SLDL": "01049", "SLDU": "01014", "SCHOOLYEAR": "2018-2019"}, "geometry": {"type": "Point", "coordinates": [-87.12222195499999, 33.22599622000007]}}, {"type": "Feature", "properties": {"FID_": 78, "NCESSCH": "010002101832", "LEAID": "0100021", "NAME": "BrewerPorch Childrens Center", "OPSTFIPS": "01", "STREET": "2501 Woodland Rd", "CITY": "Tuscaloosa", "STATE": "AL", "ZIP": "35404", "STFIP": "01", "CNTY": "01125", "NMCNTY": "Tuscaloosa County", "LOCALE": "12", "LAT": 33.187754, "LON": -87.481937, "CBSA": "46220", "NMCBSA": "Tuscaloosa, AL", "CBSATYPE": "1", "CSA": "N", "NMCSA": "N", "NECTA": "N", "NMNECTA": "N", "CD": "0107", "SLDL": "01070", "SLDU": "01024", "SCHOOLYEAR": "2018-2019"}, "geometry": {"type": "Point", "coordinates": [-87.48194205399994, 33.187760199000024]}}, {"type": "Feature", "properties": {"FID_": 79, "NCESSCH": "010002201833", "LEAID": "0100022", "NAME": "Sequel TSI Courtland LLC", "OPSTFIPS": "01", "STREET": "349 Madison Street", "CITY": "Courtland", "STATE": "AL", "ZIP": "35618", "STFIP": "01", "CNTY": "01079", "NMCNTY": "Lawrence County", "LOCALE": "42", "LAT": 34.670787, "LON": -87.312122, "CBSA": "19460", "NMCBSA": "Decatur, AL", "CBSATYPE": "1", "CSA": "290", "NMCSA": "Huntsville-Decatur-Albertville, AL", "NECTA": "N", "NMNECTA": "N", "CD": "0104", "SLDL": "01007", "SLDU": "01004", "SCHOOLYEAR": "2018-2019"}, "geometry": {"type": "Point", "coordinates": [-87.31212709099998, 34.670793513000035]}}, {"type": "Feature", "properties": {"FID_": 80, "NCESSCH": "010002301834", "LEAID": "0100023", "NAME": "Sequel TSI Madison LLC", "OPSTFIPS": "01", "STREET": "1329 Browns Ferry Road", "CITY": "Madison", "STATE": "AL", "ZIP": "35758", "STFIP": "01", "CNTY": "01089", "NMCNTY": "Madison County", "LOCALE": "21", "LAT": 34.723283, "LON": -86.777872, "CBSA": "26620", "NMCBSA": "Huntsville, AL", "CBSATYPE": "1", "CSA": "290", "NMCSA": "Huntsville-Decatur-Albertville, AL", "NECTA": "N", "NMNECTA": "N", "CD": "0105", "SLDL": "01025", "SLDU": "01002", "SCHOOLYEAR": "2018-2019"}, "geometry": {"type": "Point", "coordinates": [-86.77787694299997, 34.72328954500006]}}, {"type": "Feature", "properties": {"FID_": 81, "NCESSCH": "010002401835", "LEAID": "0100024", "NAME": "Sequel TSI New Beginnings LLC", "OPSTFIPS": "01", "STREET": "318 Hamer Rd", "CITY": "Owens Cross Roads", "STATE": "AL", "ZIP": "35763", "STFIP": "01", "CNTY": "01089", "NMCNTY": "Madison County", "LOCALE": "41", "LAT": 34.579414, "LON": -86.440997, "CBSA": "26620", "NMCBSA": "Huntsville, AL", "CBSATYPE": "1", "CSA": "290", "NMCSA": "Huntsville-Decatur-Albertville, AL", "NECTA": "N", "NMNECTA": "N", "CD": "0105", "SLDL": "01022", "SLDU": "01009", "SCHOOLYEAR": "2018-2019"}, "geometry": {"type": "Point", "coordinates": [-86.44100183799998, 34.57942052900006]}}, {"type": "Feature", "properties": {"FID_": 82, "NCESSCH": "010002602352", "LEAID": "0100026", "NAME": "Sequel TSI Tuskegee LLC", "OPSTFIPS": "01", "STREET": "4280 U S Highway 29 South", "CITY": "Tuskegee", "STATE": "AL", "ZIP": "36083", "STFIP": "01", "CNTY": "01087", "NMCNTY": "Macon County", "LOCALE": "41", "LAT": 32.374834, "LON": -85.661814, "CBSA": "N", "NMCBSA": "N", "CBSATYPE": "0", "CSA": "N", "NMCSA": "N", "NECTA": "N", "NMNECTA": "N", "CD": "0103", "SLDL": "01082", "SLDU": "01028", "SCHOOLYEAR": "2018-2019"}, "geometry": {"type": "Point", "coordinates": [-85.66181849799995, 32.37484009100007]}}, {"type": "Feature", "properties": {"FID_": 83, "NCESSCH": "010002801839", "LEAID": "0100028", "NAME": "TriWil Inc", "OPSTFIPS": "01", "STREET": "65 Enterprise Loop", "CITY": "Woodstock", "STATE": "AL", "ZIP": "35188", "STFIP": "01", "CNTY": "01007", "NMCNTY": "Bibb County", "LOCALE": "41", "LAT": 33.163401, "LON": -87.187669, "CBSA": "13820", "NMCBSA": "Birmingham-Hoover, AL", "CBSATYPE": "1", "CSA": "142", "NMCSA": "Birmingham-Hoover-Talladega, AL", "NECTA": "N", "NMNECTA": "N", "CD": "0106", "SLDL": "01049", "SLDU": "01014", "SCHOOLYEAR": "2018-2019"}, "geometry": {"type": "Point", "coordinates": [-87.18767396999993, 33.163407204000066]}}, {"type": "Feature", "properties": {"FID_": 84, "NCESSCH": "010003000001", "LEAID": "0100030", "NAME": "Alexander City Middle School", "OPSTFIPS": "01", "STREET": "359 State St", "CITY": "Alexander City", "STATE": "AL", "ZIP": "35010", "STFIP": "01", "CNTY": "01123", "NMCNTY": "Tallapoosa County", "LOCALE": "32", "LAT": 32.945075, "LON": -85.948794, "CBSA": "10760", "NMCBSA": "Alexander City, AL", "CBSATYPE": "2", "CSA": "142", "NMCSA": "Birmingham-Hoover-Talladega, AL", "NECTA": "N", "NMNECTA": "N", "CD": "0103", "SLDL": "01081", "SLDU": "01027", "SCHOOLYEAR": "2018-2019"}, "geometry": {"type": "Point", "coordinates": [-85.94879860799995, 32.945081205000065]}}, {"type": "Feature", "properties": {"FID_": 85, "NCESSCH": "010003000003", "LEAID": "0100030", "NAME": "Benjamin Russell High School", "OPSTFIPS": "01", "STREET": "225 Heard Blvd", "CITY": "Alexander City", "STATE": "AL", "ZIP": "35010", "STFIP": "01", "CNTY": "01123", "NMCNTY": "Tallapoosa County", "LOCALE": "32", "LAT": 32.937748, "LON": -85.950767, "CBSA": "10760", "NMCBSA": "Alexander City, AL", "CBSATYPE": "2", "CSA": "142", "NMCSA": "Birmingham-Hoover-Talladega, AL", "NECTA": "N", "NMNECTA": "N", "CD": "0103", "SLDL": "01081", "SLDU": "01027", "SCHOOLYEAR": "2018-2019"}, "geometry": {"type": "Point", "coordinates": [-85.95077160799997, 32.937754202000065]}}, {"type": "Feature", "properties": {"FID_": 86, "NCESSCH": "010003000004", "LEAID": "0100030", "NAME": "Jim Pearson Elementary School", "OPSTFIPS": "01", "STREET": "1240 Scott Rd", "CITY": "Alexander City", "STATE": "AL", "ZIP": "35010", "STFIP": "01", "CNTY": "01123", "NMCNTY": "Tallapoosa County", "LOCALE": "41", "LAT": 32.931162, "LON": -85.930694, "CBSA": "10760", "NMCBSA": "Alexander City, AL", "CBSATYPE": "2", "CSA": "142", "NMCSA": "Birmingham-Hoover-Talladega, AL", "NECTA": "N", "NMNECTA": "N", "CD": "0103", "SLDL": "01081", "SLDU": "01027", "SCHOOLYEAR": "2018-2019"}, "geometry": {"type": "Point", "coordinates": [-85.93069860199995, 32.93116820200004]}}, {"type": "Feature", "properties": {"FID_": 87, "NCESSCH": "010003000005", "LEAID": "0100030", "NAME": "Nathaniel H Stephens Elementary School", "OPSTFIPS": "01", "STREET": "851 Laurel St", "CITY": "Alexander City", "STATE": "AL", "ZIP": "35010", "STFIP": "01", "CNTY": "01123", "NMCNTY": "Tallapoosa County", "LOCALE": "32", "LAT": 32.955521, "LON": -85.949032, "CBSA": "10760", "NMCBSA": "Alexander City, AL", "CBSATYPE": "2", "CSA": "142", "NMCSA": "Birmingham-Hoover-Talladega, AL", "NECTA": "N", "NMNECTA": "N", "CD": "0103", "SLDL": "01081", "SLDU": "01030", "SCHOOLYEAR": "2018-2019"}, "geometry": {"type": "Point", "coordinates": [-85.94903660899996, 32.955527207000046]}}, {"type": "Feature", "properties": {"FID_": 88, "NCESSCH": "010003000006", "LEAID": "0100030", "NAME": "William L Radney Elementary School", "OPSTFIPS": "01", "STREET": "140 Allison Drive", "CITY": "Alexander City", "STATE": "AL", "ZIP": "35010", "STFIP": "01", "CNTY": "01123", "NMCNTY": "Tallapoosa County", "LOCALE": "32", "LAT": 32.929457, "LON": -85.972619, "CBSA": "10760", "NMCBSA": "Alexander City, AL", "CBSATYPE": "2", "CSA": "142", "NMCSA": "Birmingham-Hoover-Talladega, AL", "NECTA": "N", "NMNECTA": "N", "CD": "0103", "SLDL": "01081", "SLDU": "01030", "SCHOOLYEAR": "2018-2019"}, "geometry": {"type": "Point", "coordinates": [-85.97262361399999, 32.92946320100003]}}, {"type": "Feature", "properties": {"FID_": 89, "NCESSCH": "010003301843", "LEAID": "0100033", "NAME": "Glenwood Inc", "OPSTFIPS": "01", "STREET": "150 Glenwood Lane", "CITY": "Birmingham", "STATE": "AL", "ZIP": "35242", "STFIP": "01", "CNTY": "01073", "NMCNTY": "Jefferson County", "LOCALE": "41", "LAT": 33.48039, "LON": -86.665128, "CBSA": "13820", "NMCBSA": "Birmingham-Hoover, AL", "CBSATYPE": "1", "CSA": "142", "NMCSA": "Birmingham-Hoover-Talladega, AL", "NECTA": "N", "NMNECTA": "N", "CD": "0106", "SLDL": "01045", "SLDU": "01015", "SCHOOLYEAR": "2018-2019"}, "geometry": {"type": "Point", "coordinates": [-86.66513283999996, 33.48039629200008]}}, {"type": "Feature", "properties": {"FID_": 90, "NCESSCH": "010003302125", "LEAID": "0100033", "NAME": "Daniel House", "OPSTFIPS": "01", "STREET": "150 Glenwood Lane", "CITY": "Birmingham", "STATE": "AL", "ZIP": "35242", "STFIP": "01", "CNTY": "01073", "NMCNTY": "Jefferson County", "LOCALE": "41", "LAT": 33.48039, "LON": -86.665128, "CBSA": "13820", "NMCBSA": "Birmingham-Hoover, AL", "CBSATYPE": "1", "CSA": "142", "NMCSA": "Birmingham-Hoover-Talladega, AL", "NECTA": "N", "NMNECTA": "N", "CD": "0106", "SLDL": "01045", "SLDU": "01015", "SCHOOLYEAR": "2018-2019"}, "geometry": {"type": "Point", "coordinates": [-86.66513283999996, 33.48039629200008]}}, {"type": "Feature", "properties": {"FID_": 91, "NCESSCH": "010003302130", "LEAID": "0100033", "NAME": "Glenwood Wilderness", "OPSTFIPS": "01", "STREET": "150 Glenwood Lane", "CITY": "Birmingham", "STATE": "AL", "ZIP": "35242", "STFIP": "01", "CNTY": "01073", "NMCNTY": "Jefferson County", "LOCALE": "41", "LAT": 33.48039, "LON": -86.665128, "CBSA": "13820", "NMCBSA": "Birmingham-Hoover, AL", "CBSATYPE": "1", "CSA": "142", "NMCSA": "Birmingham-Hoover-Talladega, AL", "NECTA": "N", "NMNECTA": "N", "CD": "0106", "SLDL": "01045", "SLDU": "01015", "SCHOOLYEAR": "2018-2019"}, "geometry": {"type": "Point", "coordinates": [-86.66513283999996, 33.48039629200008]}}, {"type": "Feature", "properties": {"FID_": 92, "NCESSCH": "010003501845", "LEAID": "0100035", "NAME": "Learning Tree Inc Semmes", "OPSTFIPS": "01", "STREET": "4979 Lott Rd", "CITY": "Eight Mile", "STATE": "AL", "ZIP": "36575", "STFIP": "01", "CNTY": "01097", "NMCNTY": "Mobile County", "LOCALE": "41", "LAT": 30.794646, "LON": -88.229311, "CBSA": "33660", "NMCBSA": "Mobile, AL", "CBSATYPE": "1", "CSA": "380", "NMCSA": "Mobile-Daphne-Fairhope, AL", "NECTA": "N", "NMNECTA": "N", "CD": "0101", "SLDL": "01099", "SLDU": "01034", "SCHOOLYEAR": "2018-2019"}, "geometry": {"type": "Point", "coordinates": [-88.22931614399994, 30.794651658000078]}}, {"type": "Feature", "properties": {"FID_": 93, "NCESSCH": "010003501846", "LEAID": "0100035", "NAME": "Learning Tree Inc Webb", "OPSTFIPS": "01", "STREET": "6344 Roy Webb Rd", "CITY": "Peidmont", "STATE": "AL", "ZIP": "36272", "STFIP": "01", "CNTY": "01015", "NMCNTY": "Calhoun County", "LOCALE": "42", "LAT": 33.921026, "LON": -85.725683, "CBSA": "11500", "NMCBSA": "Anniston-Oxford-Jacksonville, AL", "CBSATYPE": "1", "CSA": "N", "NMCSA": "N", "NECTA": "N", "NMNECTA": "N", "CD": "0103", "SLDL": "01029", "SLDU": "01012", "SCHOOLYEAR": "2018-2019"}, "geometry": {"type": "Point", "coordinates": [-85.72568759699999, 33.921032420000074]}}, {"type": "Feature", "properties": {"FID_": 94, "NCESSCH": "010003502105", "LEAID": "0100035", "NAME": "Learning Tree Inc Tallassee", "OPSTFIPS": "01", "STREET": "100 S Dubois St", "CITY": "Tallassee", "STATE": "AL", "ZIP": "36078", "STFIP": "01", "CNTY": "01051", "NMCNTY": "Elmore County", "LOCALE": "32", "LAT": 32.534892, "LON": -85.894875, "CBSA": "33860", "NMCBSA": "Montgomery, AL", "CBSATYPE": "1", "CSA": "N", "NMCSA": "N", "NECTA": "N", "NMNECTA": "N", "CD": "0102", "SLDL": "01031", "SLDU": "01025", "SCHOOLYEAR": "2018-2019"}, "geometry": {"type": "Point", "coordinates": [-85.89487957199998, 32.53489811800006]}}, {"type": "Feature", "properties": {"FID_": 95, "NCESSCH": "010003502370", "LEAID": "0100035", "NAME": "Spec Ed Private Services Child Count Only", "OPSTFIPS": "01", "STREET": "421 Opelika Rd", "CITY": "Auburn", "STATE": "AL", "ZIP": "36830", "STFIP": "01", "CNTY": "01081", "NMCNTY": "Lee County", "LOCALE": "13", "LAT": 32.613378, "LON": -85.47482, "CBSA": "12220", "NMCBSA": "Auburn-Opelika, AL", "CBSATYPE": "1", "CSA": "194", "NMCSA": "Columbus-Auburn-Opelika, GA-AL", "NECTA": "N", "NMNECTA": "N", "CD": "0103", "SLDL": "01079", "SLDU": "01027", "SCHOOLYEAR": "2018-2019"}, "geometry": {"type": "Point", "coordinates": [-85.47482445599996, 32.61338415000006]}}, {"type": "Feature", "properties": {"FID_": 96, "NCESSCH": "010003602451", "LEAID": "0100036", "NAME": "Lee Co Youth Detention Ctr", "OPSTFIPS": "01", "STREET": "1109 Spring Drive", "CITY": "Opelika", "STATE": "AL", "ZIP": "36801", "STFIP": "01", "CNTY": "01081", "NMCNTY": "Lee County", "LOCALE": "13", "LAT": 32.642141, "LON": -85.428184, "CBSA": "12220", "NMCBSA": "Auburn-Opelika, AL", "CBSATYPE": "1", "CSA": "194", "NMCSA": "Columbus-Auburn-Opelika, GA-AL", "NECTA": "N", "NMNECTA": "N", "CD": "0103", "SLDL": "01083", "SLDU": "01027", "SCHOOLYEAR": "2018-2019"}, "geometry": {"type": "Point", "coordinates": [-85.42818844499999, 32.64214715800006]}}, {"type": "Feature", "properties": {"FID_": 97, "NCESSCH": "010003701848", "LEAID": "0100037", "NAME": "BayPointe ResidentialAltaPointe Health Systems", "OPSTFIPS": "01", "STREET": "5800 Southland Dr", "CITY": "Mobile", "STATE": "AL", "ZIP": "36693", "STFIP": "01", "CNTY": "01097", "NMCNTY": "Mobile County", "LOCALE": "12", "LAT": 30.624823, "LON": -88.177804, "CBSA": "33660", "NMCBSA": "Mobile, AL", "CBSATYPE": "1", "CSA": "380", "NMCSA": "Mobile-Daphne-Fairhope, AL", "NECTA": "N", "NMNECTA": "N", "CD": "0101", "SLDL": "01104", "SLDU": "01035", "SCHOOLYEAR": "2018-2019"}, "geometry": {"type": "Point", "coordinates": [-88.17780912199999, 30.62482862300004]}}, {"type": "Feature", "properties": {"FID_": 98, "NCESSCH": "010003801849", "LEAID": "0100038", "NAME": "Pathway Inc", "OPSTFIPS": "01", "STREET": "109 Private Rd 1202", "CITY": "New Brockton", "STATE": "AL", "ZIP": "36351", "STFIP": "01", "CNTY": "01031", "NMCNTY": "Coffee County", "LOCALE": "42", "LAT": 31.42272, "LON": -85.90201, "CBSA": "21460", "NMCBSA": "Enterprise, AL", "CBSATYPE": "2", "CSA": "222", "NMCSA": "Dothan-Enterprise-Ozark, AL", "NECTA": "N", "NMNECTA": "N", "CD": "0102", "SLDL": "01091", "SLDU": "01031", "SCHOOLYEAR": "2018-2019"}, "geometry": {"type": "Point", "coordinates": [-85.90201452099996, 31.422725875000026]}}, {"type": "Feature", "properties": {"FID_": 99, "NCESSCH": "010003802468", "LEAID": "0100038", "NAME": "Pathway at Baldwin", "OPSTFIPS": "01", "STREET": "23750 Ewing Farm Rd", "CITY": "Atmore", "STATE": "AL", "ZIP": "36502", "STFIP": "01", "CNTY": "01003", "NMCNTY": "Baldwin County", "LOCALE": "42", "LAT": 31.07607, "LON": -87.617528, "CBSA": "19300", "NMCBSA": "Daphne-Fairhope-Foley, AL", "CBSATYPE": "1", "CSA": "380", "NMCSA": "Mobile-Daphne-Fairhope, AL", "NECTA": "N", "NMNECTA": "N", "CD": "0101", "SLDL": "01064", "SLDU": "01022", "SCHOOLYEAR": "2018-2019"}, "geometry": {"type": "Point", "coordinates": [-87.61753298699995, 31.07607574000008]}}, {"type": "Feature", "properties": {"FID_": 100, "NCESSCH": "010003901850", "LEAID": "0100039", "NAME": "Presbyterian Home for Children", "OPSTFIPS": "01", "STREET": "905 Ashland Hwy", "CITY": "Talladega", "STATE": "AL", "ZIP": "35160", "STFIP": "01", "CNTY": "01121", "NMCNTY": "Talladega County", "LOCALE": "32", "LAT": 33.4327, "LON": -86.086728, "CBSA": "45180", "NMCBSA": "Talladega-Sylacauga, AL", "CBSATYPE": "2", "CSA": "142", "NMCSA": "Birmingham-Hoover-Talladega, AL", "NECTA": "N", "NMNECTA": "N", "CD": "0103", "SLDL": "01035", "SLDU": "01011", "SCHOOLYEAR": "2018-2019"}, "geometry": {"type": "Point", "coordinates": [-86.08673267299997, 33.43270630300003]}}, {"type": "Feature", "properties": {"FID_": 101, "NCESSCH": "010004001851", "LEAID": "0100040", "NAME": "Brantwood Childrens Home", "OPSTFIPS": "01", "STREET": "1309 Upper Wetumpka Rd", "CITY": "Montgomery", "STATE": "AL", "ZIP": "36107", "STFIP": "01", "CNTY": "01101", "NMCNTY": "Montgomery County", "LOCALE": "12", "LAT": 32.38493, "LON": -86.290431, "CBSA": "33860", "NMCBSA": "Montgomery, AL", "CBSATYPE": "1", "CSA": "N", "NMCSA": "N", "NECTA": "N", "NMNECTA": "N", "CD": "0102", "SLDL": "01078", "SLDU": "01026", "SCHOOLYEAR": "2018-2019"}, "geometry": {"type": "Point", "coordinates": [-86.29043567699995, 32.38493607200007]}}, {"type": "Feature", "properties": {"FID_": 102, "NCESSCH": "010004101852", "LEAID": "0100041", "NAME": "Developing Alabama Youth Prog", "OPSTFIPS": "01", "STREET": "632 11th Ave SW", "CITY": "Alabaster", "STATE": "AL", "ZIP": "35007", "STFIP": "01", "CNTY": "01117", "NMCNTY": "Shelby County", "LOCALE": "21", "LAT": 33.232463, "LON": -86.825044, "CBSA": "13820", "NMCBSA": "Birmingham-Hoover, AL", "CBSATYPE": "1", "CSA": "142", "NMCSA": "Birmingham-Hoover-Talladega, AL", "NECTA": "N", "NMNECTA": "N", "CD": "0106", "SLDL": "01049", "SLDU": "01014", "SCHOOLYEAR": "2018-2019"}, "geometry": {"type": "Point", "coordinates": [-86.82504887199997, 33.232469233000074]}}, {"type": "Feature", "properties": {"FID_": 103, "NCESSCH": "010004201853", "LEAID": "0100042", "NAME": "Laurel Oaks Behavioral Health Center", "OPSTFIPS": "01", "STREET": "700 E Cottonwood Rd", "CITY": "Dothan", "STATE": "AL", "ZIP": "36301", "STFIP": "01", "CNTY": "01069", "NMCNTY": "Houston County", "LOCALE": "13", "LAT": 31.203802, "LON": -85.384637, "CBSA": "20020", "NMCBSA": "Dothan, AL", "CBSATYPE": "1", "CSA": "222", "NMCSA": "Dothan-Enterprise-Ozark, AL", "NECTA": "N", "NMNECTA": "N", "CD": "0102", "SLDL": "01085", "SLDU": "01029", "SCHOOLYEAR": "2018-2019"}, "geometry": {"type": "Point", "coordinates": [-85.38464136399995, 31.20380784300005]}}, {"type": "Feature", "properties": {"FID_": 104, "NCESSCH": "010004301854", "LEAID": "0100043", "NAME": "Southeastern Psychiaric Management Inc", "OPSTFIPS": "01", "STREET": "3001 Scenic Hwy", "CITY": "Gadsden", "STATE": "AL", "ZIP": "35904", "STFIP": "01", "CNTY": "01055", "NMCNTY": "Etowah County", "LOCALE": "13", "LAT": 34.072451, "LON": -86.019739, "CBSA": "23460", "NMCBSA": "Gadsden, AL", "CBSATYPE": "1", "CSA": "N", "NMCSA": "N", "NECTA": "N", "NMNECTA": "N", "CD": "0104", "SLDL": "01029", "SLDU": "01010", "SCHOOLYEAR": "2018-2019"}, "geometry": {"type": "Point", "coordinates": [-86.01974368899994, 34.07245744100004]}}, {"type": "Feature", "properties": {"FID_": 105, "NCESSCH": "010004401855", "LEAID": "0100044", "NAME": "The Rushton SchoolGateway Center", "OPSTFIPS": "01", "STREET": "5201 Airport Highway", "CITY": "Birmingham", "STATE": "AL", "ZIP": "35212", "STFIP": "01", "CNTY": "01073", "NMCNTY": "Jefferson County", "LOCALE": "12", "LAT": 33.545872, "LON": -86.758081, "CBSA": "13820", "NMCBSA": "Birmingham-Hoover, AL", "CBSATYPE": "1", "CSA": "142", "NMCSA": "Birmingham-Hoover-Talladega, AL", "NECTA": "N", "NMNECTA": "N", "CD": "0107", "SLDL": "01054", "SLDU": "01018", "SCHOOLYEAR": "2018-2019"}, "geometry": {"type": "Point", "coordinates": [-86.75808586999995, 33.54587830200006]}}, {"type": "Feature", "properties": {"FID_": 106, "NCESSCH": "010006000007", "LEAID": "0100060", "NAME": "Andalusia High School", "OPSTFIPS": "01", "STREET": "701 Third St", "CITY": "Andalusia", "STATE": "AL", "ZIP": "36420", "STFIP": "01", "CNTY": "01039", "NMCNTY": "Covington County", "LOCALE": "33", "LAT": 31.315366, "LON": -86.470843, "CBSA": "N", "NMCBSA": "N", "CBSATYPE": "0", "CSA": "N", "NMCSA": "N", "NECTA": "N", "NMNECTA": "N", "CD": "0102", "SLDL": "01092", "SLDU": "01031", "SCHOOLYEAR": "2018-2019"}, "geometry": {"type": "Point", "coordinates": [-86.47084767599995, 31.31537183200004]}}, {"type": "Feature", "properties": {"FID_": 107, "NCESSCH": "010006000008", "LEAID": "0100060", "NAME": "Andalusia Junior High", "OPSTFIPS": "01", "STREET": "408 4th Avenue", "CITY": "Andalusia", "STATE": "AL", "ZIP": "36420", "STFIP": "01", "CNTY": "01039", "NMCNTY": "Covington County", "LOCALE": "33", "LAT": 31.314977, "LON": -86.470935, "CBSA": "N", "NMCBSA": "N", "CBSATYPE": "0", "CSA": "N", "NMCSA": "N", "NECTA": "N", "NMNECTA": "N", "CD": "0102", "SLDL": "01092", "SLDU": "01031", "SCHOOLYEAR": "2018-2019"}, "geometry": {"type": "Point", "coordinates": [-86.47093967699999, 31.314982831000066]}}, {"type": "Feature", "properties": {"FID_": 108, "NCESSCH": "010006001467", "LEAID": "0100060", "NAME": "Andalusia Elementary School", "OPSTFIPS": "01", "STREET": "1501 West Bypass", "CITY": "Andalusia", "STATE": "AL", "ZIP": "36420", "STFIP": "01", "CNTY": "01039", "NMCNTY": "Covington County", "LOCALE": "33", "LAT": 31.284565, "LON": -86.502504, "CBSA": "N", "NMCBSA": "N", "CBSATYPE": "0", "CSA": "N", "NMCSA": "N", "NECTA": "N", "NMNECTA": "N", "CD": "0102", "SLDL": "01092", "SLDU": "01031", "SCHOOLYEAR": "2018-2019"}, "geometry": {"type": "Point", "coordinates": [-86.50250868399996, 31.28457082400007]}}, {"type": "Feature", "properties": {"FID_": 109, "NCESSCH": "010009000011", "LEAID": "0100090", "NAME": "Anniston High School", "OPSTFIPS": "01", "STREET": "1301 Woodstock Ave", "CITY": "Anniston", "STATE": "AL", "ZIP": "36207", "STFIP": "01", "CNTY": "01015", "NMCNTY": "Calhoun County", "LOCALE": "13", "LAT": 33.661225, "LON": -85.819992, "CBSA": "11500", "NMCBSA": "Anniston-Oxford-Jacksonville, AL", "CBSATYPE": "1", "CSA": "N", "NMCSA": "N", "NECTA": "N", "NMNECTA": "N", "CD": "0103", "SLDL": "01032", "SLDU": "01012", "SCHOOLYEAR": "2018-2019"}, "geometry": {"type": "Point", "coordinates": [-85.81999660999998, 33.661231362000024]}}, {"type": "Feature", "properties": {"FID_": 110, "NCESSCH": "010009000017", "LEAID": "0100090", "NAME": "Golden Springs Elementary School", "OPSTFIPS": "01", "STREET": "100 Feary Dr", "CITY": "Anniston", "STATE": "AL", "ZIP": "36207", "STFIP": "01", "CNTY": "01015", "NMCNTY": "Calhoun County", "LOCALE": "13", "LAT": 33.632131, "LON": -85.775823, "CBSA": "11500", "NMCBSA": "Anniston-Oxford-Jacksonville, AL", "CBSATYPE": "1", "CSA": "N", "NMCSA": "N", "NECTA": "N", "NMNECTA": "N", "CD": "0103", "SLDL": "01036", "SLDU": "01012", "SCHOOLYEAR": "2018-2019"}, "geometry": {"type": "Point", "coordinates": [-85.77582759599994, 33.63213735700003]}}, {"type": "Feature", "properties": {"FID_": 111, "NCESSCH": "010009000020", "LEAID": "0100090", "NAME": "Randolph Park Elementary School", "OPSTFIPS": "01", "STREET": "2200 W 17th St", "CITY": "Anniston", "STATE": "AL", "ZIP": "36201", "STFIP": "01", "CNTY": "01015", "NMCNTY": "Calhoun County", "LOCALE": "13", "LAT": 33.665644, "LON": -85.859083, "CBSA": "11500", "NMCBSA": "Anniston-Oxford-Jacksonville, AL", "CBSATYPE": "1", "CSA": "N", "NMCSA": "N", "NECTA": "N", "NMNECTA": "N", "CD": "0103", "SLDL": "01032", "SLDU": "01012", "SCHOOLYEAR": "2018-2019"}, "geometry": {"type": "Point", "coordinates": [-85.85908762099996, 33.665650361000075]}}, {"type": "Feature", "properties": {"FID_": 112, "NCESSCH": "010009000021", "LEAID": "0100090", "NAME": "Tenth Street Elementary School", "OPSTFIPS": "01", "STREET": "1525 E 10th St", "CITY": "Anniston", "STATE": "AL", "ZIP": "36207", "STFIP": "01", "CNTY": "01015", "NMCNTY": "Calhoun County", "LOCALE": "13", "LAT": 33.65806, "LON": -85.808646, "CBSA": "11500", "NMCBSA": "Anniston-Oxford-Jacksonville, AL", "CBSATYPE": "1", "CSA": "N", "NMCSA": "N", "NECTA": "N", "NMNECTA": "N", "CD": "0103", "SLDL": "01032", "SLDU": "01012", "SCHOOLYEAR": "2018-2019"}, "geometry": {"type": "Point", "coordinates": [-85.80865060499997, 33.65806636100007]}}, {"type": "Feature", "properties": {"FID_": 113, "NCESSCH": "010009001246", "LEAID": "0100090", "NAME": "Anniston City Boot Camp School", "OPSTFIPS": "01", "STREET": "4804 McClellan Blvd", "CITY": "Anniston", "STATE": "AL", "ZIP": "36206", "STFIP": "01", "CNTY": "01015", "NMCNTY": "Calhoun County", "LOCALE": "13", "LAT": 33.708181, "LON": -85.822842, "CBSA": "11500", "NMCBSA": "Anniston-Oxford-Jacksonville, AL", "CBSATYPE": "1", "CSA": "N", "NMCSA": "N", "NECTA": "N", "NMNECTA": "N", "CD": "0103", "SLDL": "01032", "SLDU": "01012", "SCHOOLYEAR": "2018-2019"}, "geometry": {"type": "Point", "coordinates": [-85.82284661199998, 33.708187371000065]}}, {"type": "Feature", "properties": {"FID_": 114, "NCESSCH": "010009001725", "LEAID": "0100090", "NAME": "Anniston Middle School", "OPSTFIPS": "01", "STREET": "4800 McClellan Blvd", "CITY": "Anniston", "STATE": "AL", "ZIP": "36206", "STFIP": "01", "CNTY": "01015", "NMCNTY": "Calhoun County", "LOCALE": "13", "LAT": 33.708181, "LON": -85.822842, "CBSA": "11500", "NMCBSA": "Anniston-Oxford-Jacksonville, AL", "CBSATYPE": "1", "CSA": "N", "NMCSA": "N", "NECTA": "N", "NMNECTA": "N", "CD": "0103", "SLDL": "01032", "SLDU": "01012", "SCHOOLYEAR": "2018-2019"}, "geometry": {"type": "Point", "coordinates": [-85.82284661199998, 33.708187371000065]}}, {"type": "Feature", "properties": {"FID_": 115, "NCESSCH": "010009001782", "LEAID": "0100090", "NAME": "Cobb PreK Academy", "OPSTFIPS": "01", "STREET": "1325 Cobb Ave", "CITY": "Anniston", "STATE": "AL", "ZIP": "36201", "STFIP": "01", "CNTY": "01015", "NMCNTY": "Calhoun County", "LOCALE": "13", "LAT": 33.661713, "LON": -85.841746, "CBSA": "11500", "NMCBSA": "Anniston-Oxford-Jacksonville, AL", "CBSATYPE": "1", "CSA": "N", "NMCSA": "N", "NECTA": "N", "NMNECTA": "N", "CD": "0103", "SLDL": "01032", "SLDU": "01012", "SCHOOLYEAR": "2018-2019"}, "geometry": {"type": "Point", "coordinates": [-85.84175061499997, 33.66171936100005]}}, {"type": "Feature", "properties": {"FID_": 116, "NCESSCH": "010010000022", "LEAID": "0100100", "NAME": "Arab Elementary School", "OPSTFIPS": "01", "STREET": "241 8th Ave NE", "CITY": "Arab", "STATE": "AL", "ZIP": "35016", "STFIP": "01", "CNTY": "01095", "NMCNTY": "Marshall County", "LOCALE": "32", "LAT": 34.329288, "LON": -86.494268, "CBSA": "10700", "NMCBSA": "Albertville, AL", "CBSATYPE": "2", "CSA": "290", "NMCSA": "Huntsville-Decatur-Albertville, AL", "NECTA": "N", "NMNECTA": "N", "CD": "0104", "SLDL": "01027", "SLDU": "01009", "SCHOOLYEAR": "2018-2019"}, "geometry": {"type": "Point", "coordinates": [-86.49427283899996, 34.32929447500004]}}, {"type": "Feature", "properties": {"FID_": 117, "NCESSCH": "010010000025", "LEAID": "0100100", "NAME": "Arab Primary School", "OPSTFIPS": "01", "STREET": "121 Mimosa St NE", "CITY": "Arab", "STATE": "AL", "ZIP": "35016", "STFIP": "01", "CNTY": "01095", "NMCNTY": "Marshall County", "LOCALE": "41", "LAT": 34.33491, "LON": -86.496624, "CBSA": "10700", "NMCBSA": "Albertville, AL", "CBSATYPE": "2", "CSA": "290", "NMCSA": "Huntsville-Decatur-Albertville, AL", "NECTA": "N", "NMNECTA": "N", "CD": "0104", "SLDL": "01027", "SLDU": "01009", "SCHOOLYEAR": "2018-2019"}, "geometry": {"type": "Point", "coordinates": [-86.49662883899998, 34.334916477000036]}}, {"type": "Feature", "properties": {"FID_": 118, "NCESSCH": "010010000027", "LEAID": "0100100", "NAME": "Arab Junior High School", "OPSTFIPS": "01", "STREET": "911 Old Cullman Rd", "CITY": "Arab", "STATE": "AL", "ZIP": "35016", "STFIP": "01", "CNTY": "01095", "NMCNTY": "Marshall County", "LOCALE": "41", "LAT": 34.312381, "LON": -86.510509, "CBSA": "10700", "NMCBSA": "Albertville, AL", "CBSATYPE": "2", "CSA": "290", "NMCSA": "Huntsville-Decatur-Albertville, AL", "NECTA": "N", "NMNECTA": "N", "CD": "0104", "SLDL": "01027", "SLDU": "01009", "SCHOOLYEAR": "2018-2019"}, "geometry": {"type": "Point", "coordinates": [-86.51051384199997, 34.31238747100008]}}, {"type": "Feature", "properties": {"FID_": 119, "NCESSCH": "010010000028", "LEAID": "0100100", "NAME": "Arab High School", "OPSTFIPS": "01", "STREET": "511 Arabian Dr NE", "CITY": "Arab", "STATE": "AL", "ZIP": "35016", "STFIP": "01", "CNTY": "01095", "NMCNTY": "Marshall County", "LOCALE": "41", "LAT": 34.329247, "LON": -86.48857, "CBSA": "10700", "NMCBSA": "Albertville, AL", "CBSATYPE": "2", "CSA": "290", "NMCSA": "Huntsville-Decatur-Albertville, AL", "NECTA": "N", "NMNECTA": "N", "CD": "0104", "SLDL": "01027", "SLDU": "01009", "SCHOOLYEAR": "2018-2019"}, "geometry": {"type": "Point", "coordinates": [-86.48857483699999, 34.329253476000076]}}, {"type": "Feature", "properties": {"FID_": 120, "NCESSCH": "010012000522", "LEAID": "0100120", "NAME": "Athens Intermediate School", "OPSTFIPS": "01", "STREET": "1916 Us Hwy 72 W", "CITY": "Athens", "STATE": "AL", "ZIP": "35611", "STFIP": "01", "CNTY": "01083", "NMCNTY": "Limestone County", "LOCALE": "31", "LAT": 34.793435, "LON": -86.996665, "CBSA": "26620", "NMCBSA": "Huntsville, AL", "CBSATYPE": "1", "CSA": "290", "NMCSA": "Huntsville-Decatur-Albertville, AL", "NECTA": "N", "NMNECTA": "N", "CD": "0105", "SLDL": "01005", "SLDU": "01001", "SCHOOLYEAR": "2018-2019"}, "geometry": {"type": "Point", "coordinates": [-86.99667000899996, 34.79344155100006]}}, {"type": "Feature", "properties": {"FID_": 121, "NCESSCH": "010012001471", "LEAID": "0100120", "NAME": "Athens Elementary School", "OPSTFIPS": "01", "STREET": "515 N Madison St", "CITY": "Athens", "STATE": "AL", "ZIP": "35611", "STFIP": "01", "CNTY": "01083", "NMCNTY": "Limestone County", "LOCALE": "31", "LAT": 34.808687, "LON": -86.973266, "CBSA": "26620", "NMCBSA": "Huntsville, AL", "CBSATYPE": "1", "CSA": "290", "NMCSA": "Huntsville-Decatur-Albertville, AL", "NECTA": "N", "NMNECTA": "N", "CD": "0105", "SLDL": "01005", "SLDU": "01001", "SCHOOLYEAR": "2018-2019"}, "geometry": {"type": "Point", "coordinates": [-86.97327100299998, 34.80869355500005]}}, {"type": "Feature", "properties": {"FID_": 122, "NCESSCH": "010012001472", "LEAID": "0100120", "NAME": "Athens High School", "OPSTFIPS": "01", "STREET": "655 Hwy 31 North", "CITY": "Athens", "STATE": "AL", "ZIP": "35611", "STFIP": "01", "CNTY": "01083", "NMCNTY": "Limestone County", "LOCALE": "31", "LAT": 34.812319, "LON": -86.949293, "CBSA": "26620", "NMCBSA": "Huntsville, AL", "CBSATYPE": "1", "CSA": "290", "NMCSA": "Huntsville-Decatur-Albertville, AL", "NECTA": "N", "NMNECTA": "N", "CD": "0105", "SLDL": "01005", "SLDU": "01001", "SCHOOLYEAR": "2018-2019"}, "geometry": {"type": "Point", "coordinates": [-86.94929799699997, 34.812325557000065]}}, {"type": "Feature", "properties": {"FID_": 123, "NCESSCH": "010012001473", "LEAID": "0100120", "NAME": "Athens Middle School", "OPSTFIPS": "01", "STREET": "100 Hwy 31 North", "CITY": "Athens", "STATE": "AL", "ZIP": "35611", "STFIP": "01", "CNTY": "01083", "NMCNTY": "Limestone County", "LOCALE": "31", "LAT": 34.803346, "LON": -86.949838, "CBSA": "26620", "NMCBSA": "Huntsville, AL", "CBSATYPE": "1", "CSA": "290", "NMCSA": "Huntsville-Decatur-Albertville, AL", "NECTA": "N", "NMNECTA": "N", "CD": "0105", "SLDL": "01005", "SLDU": "01001", "SCHOOLYEAR": "2018-2019"}, "geometry": {"type": "Point", "coordinates": [-86.94984299699996, 34.80335255500006]}}, {"type": "Feature", "properties": {"FID_": 124, "NCESSCH": "010012001474", "LEAID": "0100120", "NAME": "James L Cowart Elementary School", "OPSTFIPS": "01", "STREET": "1701 W Hobbs St", "CITY": "Athens", "STATE": "AL", "ZIP": "35611", "STFIP": "01", "CNTY": "01083", "NMCNTY": "Limestone County", "LOCALE": "31", "LAT": 34.804348, "LON": -86.993432, "CBSA": "26620", "NMCBSA": "Huntsville, AL", "CBSATYPE": "1", "CSA": "290", "NMCSA": "Huntsville-Decatur-Albertville, AL", "NECTA": "N", "NMNECTA": "N", "CD": "0105", "SLDL": "01005", "SLDU": "01001", "SCHOOLYEAR": "2018-2019"}, "geometry": {"type": "Point", "coordinates": [-86.99343700899999, 34.80435455300005]}}, {"type": "Feature", "properties": {"FID_": 125, "NCESSCH": "010012001475", "LEAID": "0100120", "NAME": "Julian Newman Elementary School", "OPSTFIPS": "01", "STREET": "517 Julian Newman Dr", "CITY": "Athens", "STATE": "AL", "ZIP": "35611", "STFIP": "01", "CNTY": "01083", "NMCNTY": "Limestone County", "LOCALE": "31", "LAT": 34.799304, "LON": -86.96261, "CBSA": "26620", "NMCBSA": "Huntsville, AL", "CBSATYPE": "1", "CSA": "290", "NMCSA": "Huntsville-Decatur-Albertville, AL", "NECTA": "N", "NMNECTA": "N", "CD": "0105", "SLDL": "01005", "SLDU": "01001", "SCHOOLYEAR": "2018-2019"}, "geometry": {"type": "Point", "coordinates": [-86.962615, 34.799310554000044]}}, {"type": "Feature", "properties": {"FID_": 126, "NCESSCH": "010012001758", "LEAID": "0100120", "NAME": "Brookhill Elementary School", "OPSTFIPS": "01", "STREET": "320 Brookhill Dr", "CITY": "Athens", "STATE": "AL", "ZIP": "35611", "STFIP": "01", "CNTY": "01083", "NMCNTY": "Limestone County", "LOCALE": "31", "LAT": 34.781914, "LON": -86.9629, "CBSA": "26620", "NMCBSA": "Huntsville, AL", "CBSATYPE": "1", "CSA": "290", "NMCSA": "Huntsville-Decatur-Albertville, AL", "NECTA": "N", "NMNECTA": "N", "CD": "0105", "SLDL": "01005", "SLDU": "01001", "SCHOOLYEAR": "2018-2019"}, "geometry": {"type": "Point", "coordinates": [-86.96290499899999, 34.78192055000005]}}, {"type": "Feature", "properties": {"FID_": 127, "NCESSCH": "010012002417", "LEAID": "0100120", "NAME": "Athens Renaissance School", "OPSTFIPS": "01", "STREET": "405 South Street East", "CITY": "Athens", "STATE": "AL", "ZIP": "35611", "STFIP": "01", "CNTY": "01083", "NMCNTY": "Limestone County", "LOCALE": "31", "LAT": 34.800179, "LON": -86.964919, "CBSA": "26620", "NMCBSA": "Huntsville, AL", "CBSATYPE": "1", "CSA": "290", "NMCSA": "Huntsville-Decatur-Albertville, AL", "NECTA": "N", "NMNECTA": "N", "CD": "0105", "SLDL": "01005", "SLDU": "01001", "SCHOOLYEAR": "2018-2019"}, "geometry": {"type": "Point", "coordinates": [-86.964924, 34.80018555400005]}}, {"type": "Feature", "properties": {"FID_": 128, "NCESSCH": "010012002461", "LEAID": "0100120", "NAME": "Alabama Renaissance School", "OPSTFIPS": "01", "STREET": "201 West Green Street Suite B1", "CITY": "Athens", "STATE": "AL", "ZIP": "35611", "STFIP": "01", "CNTY": "01083", "NMCNTY": "Limestone County", "LOCALE": "31", "LAT": 34.801085, "LON": -86.971889, "CBSA": "26620", "NMCBSA": "Huntsville, AL", "CBSATYPE": "1", "CSA": "290", "NMCSA": "Huntsville-Decatur-Albertville, AL", "NECTA": "N", "NMNECTA": "N", "CD": "0105", "SLDL": "01005", "SLDU": "01001", "SCHOOLYEAR": "2018-2019"}, "geometry": {"type": "Point", "coordinates": [-86.97189400299999, 34.80109155400004]}}, {"type": "Feature", "properties": {"FID_": 129, "NCESSCH": "010017502112", "LEAID": "0100175", "NAME": "POINTE Academy LLC", "OPSTFIPS": "01", "STREET": "461 Donald Street", "CITY": "Mobile", "STATE": "AL", "ZIP": "36617", "STFIP": "01", "CNTY": "01097", "NMCNTY": "Mobile County", "LOCALE": "12", "LAT": 30.704663, "LON": -88.082939, "CBSA": "33660", "NMCBSA": "Mobile, AL", "CBSATYPE": "1", "CSA": "380", "NMCSA": "Mobile-Daphne-Fairhope, AL", "NECTA": "N", "NMNECTA": "N", "CD": "0101", "SLDL": "01099", "SLDU": "01033", "SCHOOLYEAR": "2018-2019"}, "geometry": {"type": "Point", "coordinates": [-88.08294409999996, 30.704668643000048]}}, {"type": "Feature", "properties": {"FID_": 130, "NCESSCH": "010017602108", "LEAID": "0100176", "NAME": "Childersburg Boot Camp", "OPSTFIPS": "01", "STREET": "926 Selma Highway", "CITY": "Childersburg", "STATE": "AL", "ZIP": "35044", "STFIP": "01", "CNTY": "01121", "NMCNTY": "Talladega County", "LOCALE": "41", "LAT": 33.364683, "LON": -86.332274, "CBSA": "45180", "NMCBSA": "Talladega-Sylacauga, AL", "CBSATYPE": "2", "CSA": "142", "NMCSA": "Birmingham-Hoover-Talladega, AL", "NECTA": "N", "NMNECTA": "N", "CD": "0103", "SLDL": "01032", "SLDU": "01015", "SCHOOLYEAR": "2018-2019"}, "geometry": {"type": "Point", "coordinates": [-86.33227873899995, 33.36468928000005]}}, {"type": "Feature", "properties": {"FID_": 131, "NCESSCH": "010017602109", "LEAID": "0100176", "NAME": "Draper Correctional Facility", "OPSTFIPS": "01", "STREET": "2828 Al Highway 143", "CITY": "Elmore", "STATE": "AL", "ZIP": "36025", "STFIP": "01", "CNTY": "01051", "NMCNTY": "Elmore County", "LOCALE": "21", "LAT": 32.577049, "LON": -86.337457, "CBSA": "33860", "NMCBSA": "Montgomery, AL", "CBSATYPE": "1", "CSA": "N", "NMCSA": "N", "NECTA": "N", "NMNECTA": "N", "CD": "0102", "SLDL": "01075", "SLDU": "01030", "SCHOOLYEAR": "2018-2019"}, "geometry": {"type": "Point", "coordinates": [-86.33746169899996, 32.57705511100005]}}, {"type": "Feature", "properties": {"FID_": 132, "NCESSCH": "010017602110", "LEAID": "0100176", "NAME": "Tutwiler Prison", "OPSTFIPS": "01", "STREET": "8966 US Highway 231", "CITY": "Wetumpka", "STATE": "AL", "ZIP": "36092", "STFIP": "01", "CNTY": "01051", "NMCNTY": "Elmore County", "LOCALE": "31", "LAT": 32.564214, "LON": -86.193789, "CBSA": "33860", "NMCBSA": "Montgomery, AL", "CBSATYPE": "1", "CSA": "N", "NMCSA": "N", "NECTA": "N", "NMNECTA": "N", "CD": "0102", "SLDL": "01031", "SLDU": "01025", "SCHOOLYEAR": "2018-2019"}, "geometry": {"type": "Point", "coordinates": [-86.19379365799995, 32.56422011300003]}}, {"type": "Feature", "properties": {"FID_": 133, "NCESSCH": "010017602111", "LEAID": "0100176", "NAME": "W E Donaldson", "OPSTFIPS": "01", "STREET": "100 Warrior Ln", "CITY": "Bessemer", "STATE": "AL", "ZIP": "35023", "STFIP": "01", "CNTY": "01073", "NMCNTY": "Jefferson County", "LOCALE": "42", "LAT": 33.51396, "LON": -87.184745, "CBSA": "13820", "NMCBSA": "Birmingham-Hoover, AL", "CBSATYPE": "1", "CSA": "142", "NMCSA": "Birmingham-Hoover-Talladega, AL", "NECTA": "N", "NMNECTA": "N", "CD": "0106", "SLDL": "01016", "SLDU": "01005", "SCHOOLYEAR": "2018-2019"}, "geometry": {"type": "Point", "coordinates": [-87.18474998799996, 33.513966278000055]}}, {"type": "Feature", "properties": {"FID_": 134, "NCESSCH": "010017602460", "LEAID": "0100176", "NAME": "JF Ingram State Technical College Special Services", "OPSTFIPS": "01", "STREET": "5375 Ingram Rd", "CITY": "Deatsville", "STATE": "AL", "ZIP": "36022", "STFIP": "01", "CNTY": "01051", "NMCNTY": "Elmore County", "LOCALE": "21", "LAT": 32.582667, "LON": -86.391816, "CBSA": "33860", "NMCBSA": "Montgomery, AL", "CBSATYPE": "1", "CSA": "N", "NMCSA": "N", "NECTA": "N", "NMNECTA": "N", "CD": "0102", "SLDL": "01031", "SLDU": "01030", "SCHOOLYEAR": "2018-2019"}, "geometry": {"type": "Point", "coordinates": [-86.39182071499994, 32.58267311000003]}}, {"type": "Feature", "properties": {"FID_": 135, "NCESSCH": "010017602465", "LEAID": "0100176", "NAME": "Kilby Correctional Facility", "OPSTFIPS": "01", "STREET": "12201 Edna Brake Lucas Dr", "CITY": "Montgomery", "STATE": "AL", "ZIP": "36117", "STFIP": "01", "CNTY": "01101", "NMCNTY": "Montgomery County", "LOCALE": "21", "LAT": 32.387976, "LON": -86.101496, "CBSA": "33860", "NMCBSA": "Montgomery, AL", "CBSATYPE": "1", "CSA": "N", "NMCSA": "N", "NECTA": "N", "NMNECTA": "N", "CD": "0103", "SLDL": "01075", "SLDU": "01025", "SCHOOLYEAR": "2018-2019"}, "geometry": {"type": "Point", "coordinates": [-86.10150062299994, 32.38798207800005]}}, {"type": "Feature", "properties": {"FID_": 136, "NCESSCH": "010017602466", "LEAID": "0100176", "NAME": "Staton Correctional Facility", "OPSTFIPS": "01", "STREET": "2690 Marion Spillway Road", "CITY": "Elmore", "STATE": "AL", "ZIP": "36025", "STFIP": "01", "CNTY": "01051", "NMCNTY": "Elmore County", "LOCALE": "21", "LAT": 32.577164, "LON": -86.333054, "CBSA": "33860", "NMCBSA": "Montgomery, AL", "CBSATYPE": "1", "CSA": "N", "NMCSA": "N", "NECTA": "N", "NMNECTA": "N", "CD": "0102", "SLDL": "01075", "SLDU": "01030", "SCHOOLYEAR": "2018-2019"}, "geometry": {"type": "Point", "coordinates": [-86.33305869799995, 32.577170111000044]}}, {"type": "Feature", "properties": {"FID_": 137, "NCESSCH": "010017602467", "LEAID": "0100176", "NAME": "Frank Lee Youth Center", "OPSTFIPS": "01", "STREET": "5305 Ingram Rd", "CITY": "Deatsville", "STATE": "AL", "ZIP": "36022", "STFIP": "01", "CNTY": "01051", "NMCNTY": "Elmore County", "LOCALE": "21", "LAT": 32.581384, "LON": -86.391869, "CBSA": "33860", "NMCBSA": "Montgomery, AL", "CBSATYPE": "1", "CSA": "N", "NMCSA": "N", "NECTA": "N", "NMNECTA": "N", "CD": "0102", "SLDL": "01031", "SLDU": "01030", "SCHOOLYEAR": "2018-2019"}, "geometry": {"type": "Point", "coordinates": [-86.39187371499997, 32.58139011000003]}}, {"type": "Feature", "properties": {"FID_": 138, "NCESSCH": "010017802113", "LEAID": "0100178", "NAME": "Higdon Hill School", "OPSTFIPS": "01", "STREET": "6869 5th Ave S", "CITY": "Birmingham", "STATE": "AL", "ZIP": "35212", "STFIP": "01", "CNTY": "01073", "NMCNTY": "Jefferson County", "LOCALE": "12", "LAT": 33.548911, "LON": -86.730571, "CBSA": "13820", "NMCBSA": "Birmingham-Hoover, AL", "CBSATYPE": "1", "CSA": "142", "NMCSA": "Birmingham-Hoover-Talladega, AL", "NECTA": "N", "NMNECTA": "N", "CD": "0107", "SLDL": "01059", "SLDU": "01018", "SCHOOLYEAR": "2018-2019"}, "geometry": {"type": "Point", "coordinates": [-86.73057586199997, 33.54891730300005]}}, {"type": "Feature", "properties": {"FID_": 139, "NCESSCH": "010017802374", "LEAID": "0100178", "NAME": "Higdon Hill School", "OPSTFIPS": "01", "STREET": "6869 5th Ave S", "CITY": "Birmingham", "STATE": "AL", "ZIP": "35212", "STFIP": "01", "CNTY": "01073", "NMCNTY": "Jefferson County", "LOCALE": "12", "LAT": 33.548911, "LON": -86.730571, "CBSA": "13820", "NMCBSA": "Birmingham-Hoover, AL", "CBSATYPE": "1", "CSA": "142", "NMCSA": "Birmingham-Hoover-Talladega, AL", "NECTA": "N", "NMNECTA": "N", "CD": "0107", "SLDL": "01059", "SLDU": "01018", "SCHOOLYEAR": "2018-2019"}, "geometry": {"type": "Point", "coordinates": [-86.73057586199997, 33.54891730300005]}}, {"type": "Feature", "properties": {"FID_": 140, "NCESSCH": "010017902107", "LEAID": "0100179", "NAME": "The Bridge Inc Mobile", "OPSTFIPS": "01", "STREET": "3401 Newman Road", "CITY": "Mobile", "STATE": "AL", "ZIP": "36695", "STFIP": "01", "CNTY": "01097", "NMCNTY": "Mobile County", "LOCALE": "41", "LAT": 30.619211, "LON": -88.33722, "CBSA": "33660", "NMCBSA": "Mobile, AL", "CBSATYPE": "1", "CSA": "380", "NMCSA": "Mobile-Daphne-Fairhope, AL", "NECTA": "N", "NMNECTA": "N", "CD": "0101", "SLDL": "01100", "SLDU": "01034", "SCHOOLYEAR": "2018-2019"}, "geometry": {"type": "Point", "coordinates": [-88.33722516599994, 30.619216616000074]}}, {"type": "Feature", "properties": {"FID_": 141, "NCESSCH": "010017902459", "LEAID": "0100179", "NAME": "The Bridge Inc Gadsden", "OPSTFIPS": "01", "STREET": "3232 Lay Springs Road", "CITY": "Gadsden", "STATE": "AL", "ZIP": "35904", "STFIP": "01", "CNTY": "01055", "NMCNTY": "Etowah County", "LOCALE": "41", "LAT": 34.071923, "LON": -85.979239, "CBSA": "23460", "NMCBSA": "Gadsden, AL", "CBSATYPE": "1", "CSA": "N", "NMCSA": "N", "NECTA": "N", "NMNECTA": "N", "CD": "0104", "SLDL": "01029", "SLDU": "01010", "SCHOOLYEAR": "2018-2019"}, "geometry": {"type": "Point", "coordinates": [-85.97924367799999, 34.071929442000055]}}, {"type": "Feature", "properties": {"FID_": 142, "NCESSCH": "010018000033", "LEAID": "0100180", "NAME": "Etowah High School", "OPSTFIPS": "01", "STREET": "201 Case Ave", "CITY": "Attalla", "STATE": "AL", "ZIP": "35954", "STFIP": "01", "CNTY": "01055", "NMCNTY": "Etowah County", "LOCALE": "23", "LAT": 33.995973, "LON": -86.110859, "CBSA": "23460", "NMCBSA": "Gadsden, AL", "CBSATYPE": "1", "CSA": "N", "NMCSA": "N", "NECTA": "N", "NMNECTA": "N", "CD": "0104", "SLDL": "01028", "SLDU": "01010", "SCHOOLYEAR": "2018-2019"}, "geometry": {"type": "Point", "coordinates": [-86.11086371099998, 33.99597942100007]}}, {"type": "Feature", "properties": {"FID_": 143, "NCESSCH": "010018000034", "LEAID": "0100180", "NAME": "Etowah Middle School", "OPSTFIPS": "01", "STREET": "316 Jones Street", "CITY": "Attalla", "STATE": "AL", "ZIP": "35954", "STFIP": "01", "CNTY": "01055", "NMCNTY": "Etowah County", "LOCALE": "23", "LAT": 33.995704, "LON": -86.112782, "CBSA": "23460", "NMCBSA": "Gadsden, AL", "CBSATYPE": "1", "CSA": "N", "NMCSA": "N", "NECTA": "N", "NMNECTA": "N", "CD": "0104", "SLDL": "01028", "SLDU": "01010", "SCHOOLYEAR": "2018-2019"}, "geometry": {"type": "Point", "coordinates": [-86.11278671099996, 33.99571042100007]}}, {"type": "Feature", "properties": {"FID_": 144, "NCESSCH": "010018000035", "LEAID": "0100180", "NAME": "Attalla Elementary School", "OPSTFIPS": "01", "STREET": "300 Cullman Avenue", "CITY": "Attalla", "STATE": "AL", "ZIP": "35954", "STFIP": "01", "CNTY": "01055", "NMCNTY": "Etowah County", "LOCALE": "23", "LAT": 33.998734, "LON": -86.126219, "CBSA": "23460", "NMCBSA": "Gadsden, AL", "CBSATYPE": "1", "CSA": "N", "NMCSA": "N", "NECTA": "N", "NMNECTA": "N", "CD": "0104", "SLDL": "01028", "SLDU": "01010", "SCHOOLYEAR": "2018-2019"}, "geometry": {"type": "Point", "coordinates": [-86.12622371499998, 33.998740421000036]}}, {"type": "Feature", "properties": {"FID_": 145, "NCESSCH": "010018102116", "LEAID": "0100181", "NAME": "Compass School", "OPSTFIPS": "01", "STREET": "21280 Hwy 31", "CITY": "Flomaton", "STATE": "AL", "ZIP": "36441", "STFIP": "01", "CNTY": "01053", "NMCNTY": "Escambia County", "LOCALE": "32", "LAT": 31.006675, "LON": -87.268202, "CBSA": "12120", "NMCBSA": "Atmore, AL", "CBSATYPE": "2", "CSA": "426", "NMCSA": "Pensacola-Ferry Pass, FL-AL", "NECTA": "N", "NMNECTA": "N", "CD": "0101", "SLDL": "01066", "SLDU": "01022", "SCHOOLYEAR": "2018-2019"}, "geometry": {"type": "Point", "coordinates": [-87.26820688599997, 31.006680737000067]}}, {"type": "Feature", "properties": {"FID_": 146, "NCESSCH": "010018302114", "LEAID": "0100183", "NAME": "Alabama Clinical Schools", "OPSTFIPS": "01", "STREET": "1221 Alton Dr", "CITY": "Birmingham", "STATE": "AL", "ZIP": "35210", "STFIP": "01", "CNTY": "01073", "NMCNTY": "Jefferson County", "LOCALE": "12", "LAT": 33.58486, "LON": -86.646003, "CBSA": "13820", "NMCBSA": "Birmingham-Hoover, AL", "CBSATYPE": "1", "CSA": "142", "NMCSA": "Birmingham-Hoover-Talladega, AL", "NECTA": "N", "NMNECTA": "N", "CD": "0106", "SLDL": "01045", "SLDU": "01020", "SCHOOLYEAR": "2018-2019"}, "geometry": {"type": "Point", "coordinates": [-86.64600783999998, 33.58486631400007]}}, {"type": "Feature", "properties": {"FID_": 147, "NCESSCH": "010018402115", "LEAID": "0100184", "NAME": "Excel Institute", "OPSTFIPS": "01", "STREET": "1147 Walnut St", "CITY": "Gadsden", "STATE": "AL", "ZIP": "35901", "STFIP": "01", "CNTY": "01055", "NMCNTY": "Etowah County", "LOCALE": "13", "LAT": 34.011773, "LON": -86.02093, "CBSA": "23460", "NMCBSA": "Gadsden, AL", "CBSATYPE": "1", "CSA": "N", "NMCSA": "N", "NECTA": "N", "NMNECTA": "N", "CD": "0104", "SLDL": "01028", "SLDU": "01010", "SCHOOLYEAR": "2018-2019"}, "geometry": {"type": "Point", "coordinates": [-86.02093468599998, 34.01177942800007]}}, {"type": "Feature", "properties": {"FID_": 148, "NCESSCH": "010018500893", "LEAID": "0100185", "NAME": "Saraland Middle SchoolAdams Campus", "OPSTFIPS": "01", "STREET": "401 Baldwin Road", "CITY": "Saraland", "STATE": "AL", "ZIP": "36571", "STFIP": "01", "CNTY": "01097", "NMCNTY": "Mobile County", "LOCALE": "21", "LAT": 30.8313, "LON": -88.065367, "CBSA": "33660", "NMCBSA": "Mobile, AL", "CBSATYPE": "1", "CSA": "380", "NMCSA": "Mobile-Daphne-Fairhope, AL", "NECTA": "N", "NMNECTA": "N", "CD": "0101", "SLDL": "01096", "SLDU": "01034", "SCHOOLYEAR": "2018-2019"}, "geometry": {"type": "Point", "coordinates": [-88.0653721, 30.831305672000042]}}, {"type": "Feature", "properties": {"FID_": 149, "NCESSCH": "010018500952", "LEAID": "0100185", "NAME": "Saraland Elementary School", "OPSTFIPS": "01", "STREET": "229 McKeough Ave", "CITY": "Saraland", "STATE": "AL", "ZIP": "36571", "STFIP": "01", "CNTY": "01097", "NMCNTY": "Mobile County", "LOCALE": "21", "LAT": 30.810124, "LON": -88.078798, "CBSA": "33660", "NMCBSA": "Mobile, AL", "CBSATYPE": "1", "CSA": "380", "NMCSA": "Mobile-Daphne-Fairhope, AL", "NECTA": "N", "NMNECTA": "N", "CD": "0101", "SLDL": "01096", "SLDU": "01034", "SCHOOLYEAR": "2018-2019"}, "geometry": {"type": "Point", "coordinates": [-88.07880310299998, 30.81012966700007]}}, {"type": "Feature", "properties": {"FID_": 150, "NCESSCH": "010018502137", "LEAID": "0100185", "NAME": "Saraland High School", "OPSTFIPS": "01", "STREET": "1115 Industrial Parkway", "CITY": "Saraland", "STATE": "AL", "ZIP": "36571", "STFIP": "01", "CNTY": "01097", "NMCNTY": "Mobile County", "LOCALE": "21", "LAT": 30.796015, "LON": -88.100153, "CBSA": "33660", "NMCBSA": "Mobile, AL", "CBSATYPE": "1", "CSA": "380", "NMCSA": "Mobile-Daphne-Fairhope, AL", "NECTA": "N", "NMNECTA": "N", "CD": "0101", "SLDL": "01098", "SLDU": "01034", "SCHOOLYEAR": "2018-2019"}, "geometry": {"type": "Point", "coordinates": [-88.10015810799996, 30.796020663000036]}}, {"type": "Feature", "properties": {"FID_": 151, "NCESSCH": "010018502427", "LEAID": "0100185", "NAME": "Saraland Early Education Center", "OPSTFIPS": "01", "STREET": "4000 Lil Spartan Drive", "CITY": "Saraland", "STATE": "AL", "ZIP": "36571", "STFIP": "01", "CNTY": "01097", "NMCNTY": "Mobile County", "LOCALE": "41", "LAT": 30.862646, "LON": -88.127436, "CBSA": "33660", "NMCBSA": "Mobile, AL", "CBSATYPE": "1", "CSA": "380", "NMCSA": "Mobile-Daphne-Fairhope, AL", "NECTA": "N", "NMNECTA": "N", "CD": "0101", "SLDL": "01098", "SLDU": "01034", "SCHOOLYEAR": "2018-2019"}, "geometry": {"type": "Point", "coordinates": [-88.12744111899997, 30.86265167700003]}}, {"type": "Feature", "properties": {"FID_": 152, "NCESSCH": "010018602335", "LEAID": "0100186", "NAME": "Father Purcell Memorial Exceptional Childrens Center", "OPSTFIPS": "01", "STREET": "1820 Oak St", "CITY": "Montgomery", "STATE": "AL", "ZIP": "36108", "STFIP": "01", "CNTY": "01101", "NMCNTY": "Montgomery County", "LOCALE": "12", "LAT": 32.353, "LON": -86.326001, "CBSA": "33860", "NMCBSA": "Montgomery, AL", "CBSATYPE": "1", "CSA": "N", "NMCSA": "N", "NECTA": "N", "NMNECTA": "N", "CD": "0107", "SLDL": "01077", "SLDU": "01026", "SCHOOLYEAR": "2018-2019"}, "geometry": {"type": "Point", "coordinates": [-86.32600568499998, 32.353006063000066]}}, {"type": "Feature", "properties": {"FID_": 153, "NCESSCH": "010018702371", "LEAID": "0100187", "NAME": "Montgomery Childrens Specialty Center", "OPSTFIPS": "01", "STREET": "2853 Forbes Dr", "CITY": "Montgomery", "STATE": "AL", "ZIP": "36110", "STFIP": "01", "CNTY": "01101", "NMCNTY": "Montgomery County", "LOCALE": "12", "LAT": 32.425143, "LON": -86.286837, "CBSA": "33860", "NMCBSA": "Montgomery, AL", "CBSATYPE": "1", "CSA": "N", "NMCSA": "N", "NECTA": "N", "NMNECTA": "N", "CD": "0102", "SLDL": "01078", "SLDU": "01026", "SCHOOLYEAR": "2018-2019"}, "geometry": {"type": "Point", "coordinates": [-86.28684167799997, 32.42514908100003]}}, {"type": "Feature", "properties": {"FID_": 154, "NCESSCH": "010018802193", "LEAID": "0100188", "NAME": "Chickasaw City Elementary School", "OPSTFIPS": "01", "STREET": "80 Grant Street", "CITY": "Chickasaw", "STATE": "AL", "ZIP": "36611", "STFIP": "01", "CNTY": "01097", "NMCNTY": "Mobile County", "LOCALE": "21", "LAT": 30.761258, "LON": -88.082215, "CBSA": "33660", "NMCBSA": "Mobile, AL", "CBSATYPE": "1", "CSA": "380", "NMCSA": "Mobile-Daphne-Fairhope, AL", "NECTA": "N", "NMNECTA": "N", "CD": "0101", "SLDL": "01097", "SLDU": "01033", "SCHOOLYEAR": "2018-2019"}, "geometry": {"type": "Point", "coordinates": [-88.08222010199995, 30.76126365600004]}}, {"type": "Feature", "properties": {"FID_": 155, "NCESSCH": "010018802194", "LEAID": "0100188", "NAME": "Chickasaw City High School", "OPSTFIPS": "01", "STREET": "50 12th Ave", "CITY": "Chickasaw", "STATE": "AL", "ZIP": "36611", "STFIP": "01", "CNTY": "01097", "NMCNTY": "Mobile County", "LOCALE": "21", "LAT": 30.75687, "LON": -88.077977, "CBSA": "33660", "NMCBSA": "Mobile, AL", "CBSATYPE": "1", "CSA": "380", "NMCSA": "Mobile-Daphne-Fairhope, AL", "NECTA": "N", "NMNECTA": "N", "CD": "0101", "SLDL": "01097", "SLDU": "01033", "SCHOOLYEAR": "2018-2019"}, "geometry": {"type": "Point", "coordinates": [-88.07798209999999, 30.756875655000044]}}, {"type": "Feature", "properties": {"FID_": 156, "NCESSCH": "010018802428", "LEAID": "0100188", "NAME": "Chickasaw Middle School", "OPSTFIPS": "01", "STREET": "50 Chieftain Way", "CITY": "Chickasaw", "STATE": "AL", "ZIP": "36611", "STFIP": "01", "CNTY": "01097", "NMCNTY": "Mobile County", "LOCALE": "21", "LAT": 30.756856, "LON": -88.078622, "CBSA": "33660", "NMCBSA": "Mobile, AL", "CBSATYPE": "1", "CSA": "380", "NMCSA": "Mobile-Daphne-Fairhope, AL", "NECTA": "N", "NMNECTA": "N", "CD": "0101", "SLDL": "01097", "SLDU": "01033", "SCHOOLYEAR": "2018-2019"}, "geometry": {"type": "Point", "coordinates": [-88.07862709999995, 30.75686165500008]}}, {"type": "Feature", "properties": {"FID_": 157, "NCESSCH": "010018902195", "LEAID": "0100189", "NAME": "Satsuma High School", "OPSTFIPS": "01", "STREET": "1 Gator Circle", "CITY": "Satsuma", "STATE": "AL", "ZIP": "36572", "STFIP": "01", "CNTY": "01097", "NMCNTY": "Mobile County", "LOCALE": "21", "LAT": 30.847077, "LON": -88.056867, "CBSA": "33660", "NMCBSA": "Mobile, AL", "CBSATYPE": "1", "CSA": "380", "NMCSA": "Mobile-Daphne-Fairhope, AL", "NECTA": "N", "NMNECTA": "N", "CD": "0101", "SLDL": "01096", "SLDU": "01034", "SCHOOLYEAR": "2018-2019"}, "geometry": {"type": "Point", "coordinates": [-88.05687209899997, 30.847082675000024]}}, {"type": "Feature", "properties": {"FID_": 158, "NCESSCH": "010018902196", "LEAID": "0100189", "NAME": "Robert E Lee Elementary", "OPSTFIPS": "01", "STREET": "251 Baker Rd", "CITY": "Satsuma", "STATE": "AL", "ZIP": "36572", "STFIP": "01", "CNTY": "01097", "NMCNTY": "Mobile County", "LOCALE": "21", "LAT": 30.846614, "LON": -88.067029, "CBSA": "33660", "NMCBSA": "Mobile, AL", "CBSATYPE": "1", "CSA": "380", "NMCSA": "Mobile-Daphne-Fairhope, AL", "NECTA": "N", "NMNECTA": "N", "CD": "0101", "SLDL": "01098", "SLDU": "01034", "SCHOOLYEAR": "2018-2019"}, "geometry": {"type": "Point", "coordinates": [-88.06703410199998, 30.846619675000056]}}, {"type": "Feature", "properties": {"FID_": 159, "NCESSCH": "010019001182", "LEAID": "0100190", "NAME": "Thompson Intermediate School", "OPSTFIPS": "01", "STREET": "10019 Highway 119", "CITY": "Alabaster", "STATE": "AL", "ZIP": "35007", "STFIP": "01", "CNTY": "01117", "NMCNTY": "Shelby County", "LOCALE": "21", "LAT": 33.224912, "LON": -86.824098, "CBSA": "13820", "NMCBSA": "Birmingham-Hoover, AL", "CBSATYPE": "1", "CSA": "142", "NMCSA": "Birmingham-Hoover-Talladega, AL", "NECTA": "N", "NMNECTA": "N", "CD": "0106", "SLDL": "01049", "SLDU": "01014", "SCHOOLYEAR": "2018-2019"}, "geometry": {"type": "Point", "coordinates": [-86.82410287099998, 33.22491823100006]}}, {"type": "Feature", "properties": {"FID_": 160, "NCESSCH": "010019001183", "LEAID": "0100190", "NAME": "Thompson High School", "OPSTFIPS": "01", "STREET": "1921 Warrior Parkway", "CITY": "Alabaster", "STATE": "AL", "ZIP": "35007", "STFIP": "01", "CNTY": "01117", "NMCNTY": "Shelby County", "LOCALE": "21", "LAT": 33.222102, "LON": -86.845962, "CBSA": "13820", "NMCBSA": "Birmingham-Hoover, AL", "CBSATYPE": "1", "CSA": "142", "NMCSA": "Birmingham-Hoover-Talladega, AL", "NECTA": "N", "NMNECTA": "N", "CD": "0106", "SLDL": "01049", "SLDU": "01014", "SCHOOLYEAR": "2018-2019"}, "geometry": {"type": "Point", "coordinates": [-86.84596687699997, 33.22210823000006]}}, {"type": "Feature", "properties": {"FID_": 161, "NCESSCH": "010019001184", "LEAID": "0100190", "NAME": "Thompson Middle School", "OPSTFIPS": "01", "STREET": "1509 Kent Dairy Road", "CITY": "Alabaster", "STATE": "AL", "ZIP": "35007", "STFIP": "01", "CNTY": "01117", "NMCNTY": "Shelby County", "LOCALE": "21", "LAT": 33.217043, "LON": -86.838544, "CBSA": "13820", "NMCBSA": "Birmingham-Hoover, AL", "CBSATYPE": "1", "CSA": "142", "NMCSA": "Birmingham-Hoover-Talladega, AL", "NECTA": "N", "NMNECTA": "N", "CD": "0106", "SLDL": "01049", "SLDU": "01014", "SCHOOLYEAR": "2018-2019"}, "geometry": {"type": "Point", "coordinates": [-86.83854887499996, 33.217049229000054]}}, {"type": "Feature", "properties": {"FID_": 162, "NCESSCH": "010019001460", "LEAID": "0100190", "NAME": "Meadow View  Elementary School", "OPSTFIPS": "01", "STREET": "2800 Smokey Rd", "CITY": "Alabaster", "STATE": "AL", "ZIP": "35007", "STFIP": "01", "CNTY": "01117", "NMCNTY": "Shelby County", "LOCALE": "21", "LAT": 33.17642, "LON": -86.808574, "CBSA": "13820", "NMCBSA": "Birmingham-Hoover, AL", "CBSATYPE": "1", "CSA": "142", "NMCSA": "Birmingham-Hoover-Talladega, AL", "NECTA": "N", "NMNECTA": "N", "CD": "0106", "SLDL": "01073", "SLDU": "01014", "SCHOOLYEAR": "2018-2019"}, "geometry": {"type": "Point", "coordinates": [-86.80857886399997, 33.17642622200003]}}, {"type": "Feature", "properties": {"FID_": 163, "NCESSCH": "010019001815", "LEAID": "0100190", "NAME": "Creek View Elementary School", "OPSTFIPS": "01", "STREET": "8568 Highway 17", "CITY": "Maylene", "STATE": "AL", "ZIP": "35114", "STFIP": "01", "CNTY": "01117", "NMCNTY": "Shelby County", "LOCALE": "21", "LAT": 33.225792, "LON": -86.864943, "CBSA": "13820", "NMCBSA": "Birmingham-Hoover, AL", "CBSATYPE": "1", "CSA": "142", "NMCSA": "Birmingham-Hoover-Talladega, AL", "NECTA": "N", "NMNECTA": "N", "CD": "0106", "SLDL": "01073", "SLDU": "01014", "SCHOOLYEAR": "2018-2019"}, "geometry": {"type": "Point", "coordinates": [-86.86494788299996, 33.225798230000066]}}, {"type": "Feature", "properties": {"FID_": 164, "NCESSCH": "010019002149", "LEAID": "0100190", "NAME": "Thompson Sixth Grade Center", "OPSTFIPS": "01", "STREET": "10111 Highway 119", "CITY": "Alabaster", "STATE": "AL", "ZIP": "35007", "STFIP": "01", "CNTY": "01117", "NMCNTY": "Shelby County", "LOCALE": "21", "LAT": 33.226128, "LON": -86.824103, "CBSA": "13820", "NMCBSA": "Birmingham-Hoover, AL", "CBSATYPE": "1", "CSA": "142", "NMCSA": "Birmingham-Hoover-Talladega, AL", "NECTA": "N", "NMNECTA": "N", "CD": "0106", "SLDL": "01049", "SLDU": "01014", "SCHOOLYEAR": "2018-2019"}, "geometry": {"type": "Point", "coordinates": [-86.82410787099997, 33.22613423200005]}}, {"type": "Feature", "properties": {"FID_": 165, "NCESSCH": "010019102305", "LEAID": "0100191", "NAME": "Evergreen School", "OPSTFIPS": "01", "STREET": "The University of Alabama Working on Womanhood Program 6001", "CITY": "Tuscaloosa", "STATE": "AL", "ZIP": "35405", "STFIP": "01", "CNTY": "01125", "NMCNTY": "Tuscaloosa County", "LOCALE": "12", "LAT": 33.208594, "LON": -87.545493, "CBSA": "46220", "NMCBSA": "Tuscaloosa, AL", "CBSATYPE": "1", "CSA": "N", "NMCSA": "N", "NECTA": "N", "NMNECTA": "N", "CD": "0107", "SLDL": "01063", "SLDU": "01021", "SCHOOLYEAR": "2018-2019"}, "geometry": {"type": "Point", "coordinates": [-87.54549807299998, 33.208600201000024]}}, {"type": "Feature", "properties": {"FID_": 166, "NCESSCH": "010019201694", "LEAID": "0100192", "NAME": "Montgomery Public Schools MPS Classroom McInnis", "OPSTFIPS": "01", "STREET": "3500 McInnis Rd", "CITY": "Montgomery", "STATE": "AL", "ZIP": "36116", "STFIP": "01", "CNTY": "01101", "NMCNTY": "Montgomery County", "LOCALE": "41", "LAT": 32.289712, "LON": -86.261669, "CBSA": "33860", "NMCBSA": "Montgomery, AL", "CBSATYPE": "1", "CSA": "N", "NMCSA": "N", "NECTA": "N", "NMNECTA": "N", "CD": "0102", "SLDL": "01069", "SLDU": "01026", "SCHOOLYEAR": "2018-2019"}, "geometry": {"type": "Point", "coordinates": [-86.26167366299995, 32.28971805200007]}}, {"type": "Feature", "properties": {"FID_": 167, "NCESSCH": "010019302341", "LEAID": "0100193", "NAME": "St Marys Home", "OPSTFIPS": "01", "STREET": "4350 Moffett Road", "CITY": "Mobile", "STATE": "AL", "ZIP": "36618", "STFIP": "01", "CNTY": "01097", "NMCNTY": "Mobile County", "LOCALE": "12", "LAT": 30.721769, "LON": -88.141573, "CBSA": "33660", "NMCBSA": "Mobile, AL", "CBSATYPE": "1", "CSA": "380", "NMCSA": "Mobile-Daphne-Fairhope, AL", "NECTA": "N", "NMNECTA": "N", "CD": "0101", "SLDL": "01099", "SLDU": "01033", "SCHOOLYEAR": "2018-2019"}, "geometry": {"type": "Point", "coordinates": [-88.14157811599995, 30.72177464500004]}}, {"type": "Feature", "properties": {"FID_": 168, "NCESSCH": "010019402395", "LEAID": "0100194", "NAME": "Pelham Oaks", "OPSTFIPS": "01", "STREET": "2200 Highway 33", "CITY": "Pelham", "STATE": "AL", "ZIP": "35124", "STFIP": "01", "CNTY": "01117", "NMCNTY": "Shelby County", "LOCALE": "41", "LAT": 33.309908, "LON": -86.789469, "CBSA": "13820", "NMCBSA": "Birmingham-Hoover, AL", "CBSATYPE": "1", "CSA": "142", "NMCSA": "Birmingham-Hoover-Talladega, AL", "NECTA": "N", "NMNECTA": "N", "CD": "0106", "SLDL": "01073", "SLDU": "01015", "SCHOOLYEAR": "2018-2019"}, "geometry": {"type": "Point", "coordinates": [-86.78947386599998, 33.309914251000066]}}, {"type": "Feature", "properties": {"FID_": 169, "NCESSCH": "010019402396", "LEAID": "0100194", "NAME": "Pelham Ridge", "OPSTFIPS": "01", "STREET": "251 Applegate Parkway", "CITY": "Pelham", "STATE": "AL", "ZIP": "35124", "STFIP": "01", "CNTY": "01117", "NMCNTY": "Shelby County", "LOCALE": "21", "LAT": 33.275334, "LON": -86.78671, "CBSA": "13820", "NMCBSA": "Birmingham-Hoover, AL", "CBSATYPE": "1", "CSA": "142", "NMCSA": "Birmingham-Hoover-Talladega, AL", "NECTA": "N", "NMNECTA": "N", "CD": "0106", "SLDL": "01073", "SLDU": "01015", "SCHOOLYEAR": "2018-2019"}, "geometry": {"type": "Point", "coordinates": [-86.78671486299999, 33.27534024400006]}}, {"type": "Feature", "properties": {"FID_": 170, "NCESSCH": "010019402398", "LEAID": "0100194", "NAME": "Pelham Park Middle School", "OPSTFIPS": "01", "STREET": "2016 Pelham Park Boulevard", "CITY": "Pelham", "STATE": "AL", "ZIP": "35124", "STFIP": "01", "CNTY": "01117", "NMCNTY": "Shelby County", "LOCALE": "21", "LAT": 33.30662, "LON": -86.808097, "CBSA": "13820", "NMCBSA": "Birmingham-Hoover, AL", "CBSATYPE": "1", "CSA": "142", "NMCSA": "Birmingham-Hoover-Talladega, AL", "NECTA": "N", "NMNECTA": "N", "CD": "0106", "SLDL": "01073", "SLDU": "01014", "SCHOOLYEAR": "2018-2019"}, "geometry": {"type": "Point", "coordinates": [-86.80810187099996, 33.30662624900003]}}, {"type": "Feature", "properties": {"FID_": 171, "NCESSCH": "010019402399", "LEAID": "0100194", "NAME": "Pelham High School", "OPSTFIPS": "01", "STREET": "2500 Panther Cir", "CITY": "Pelham", "STATE": "AL", "ZIP": "35124", "STFIP": "01", "CNTY": "01117", "NMCNTY": "Shelby County", "LOCALE": "21", "LAT": 33.312895, "LON": -86.82121, "CBSA": "13820", "NMCBSA": "Birmingham-Hoover, AL", "CBSATYPE": "1", "CSA": "142", "NMCSA": "Birmingham-Hoover-Talladega, AL", "NECTA": "N", "NMNECTA": "N", "CD": "0106", "SLDL": "01073", "SLDU": "01014", "SCHOOLYEAR": "2018-2019"}, "geometry": {"type": "Point", "coordinates": [-86.82121487399996, 33.31290125000004]}}, {"type": "Feature", "properties": {"FID_": 172, "NCESSCH": "010019502407", "LEAID": "0100195", "NAME": "Pike Road Elementary School", "OPSTFIPS": "01", "STREET": "500 Avenue of Learning", "CITY": "Pike Road", "STATE": "AL", "ZIP": "36064", "STFIP": "01", "CNTY": "01101", "NMCNTY": "Montgomery County", "LOCALE": "41", "LAT": 32.338392, "LON": -86.028178, "CBSA": "33860", "NMCBSA": "Montgomery, AL", "CBSATYPE": "1", "CSA": "N", "NMCSA": "N", "NECTA": "N", "NMNECTA": "N", "CD": "0103", "SLDL": "01075", "SLDU": "01025", "SCHOOLYEAR": "2018-2019"}, "geometry": {"type": "Point", "coordinates": [-86.0281826, 32.33839807100003]}}, {"type": "Feature", "properties": {"FID_": 173, "NCESSCH": "010019502424", "LEAID": "0100195", "NAME": "Pike Road Middle School", "OPSTFIPS": "01", "STREET": "4710 Pike Road", "CITY": "Pike Road", "STATE": "AL", "ZIP": "36064", "STFIP": "01", "CNTY": "01101", "NMCNTY": "Montgomery County", "LOCALE": "41", "LAT": 32.285484, "LON": -86.103225, "CBSA": "33860", "NMCBSA": "Montgomery, AL", "CBSATYPE": "1", "CSA": "N", "NMCSA": "N", "NECTA": "N", "NMNECTA": "N", "CD": "0103", "SLDL": "01075", "SLDU": "01025", "SCHOOLYEAR": "2018-2019"}, "geometry": {"type": "Point", "coordinates": [-86.10322961899999, 32.28549005700006]}}, {"type": "Feature", "properties": {"FID_": 174, "NCESSCH": "010019502441", "LEAID": "0100195", "NAME": "Pike Road High School", "OPSTFIPS": "01", "STREET": "696 Georgia Washington Rd", "CITY": "Pike Road", "STATE": "AL", "ZIP": "36064", "STFIP": "01", "CNTY": "01101", "NMCNTY": "Montgomery County", "LOCALE": "21", "LAT": 32.355003, "LON": -86.102682, "CBSA": "33860", "NMCBSA": "Montgomery, AL", "CBSATYPE": "1", "CSA": "N", "NMCSA": "N", "NECTA": "N", "NMNECTA": "N", "CD": "0103", "SLDL": "01075", "SLDU": "01025", "SCHOOLYEAR": "2018-2019"}, "geometry": {"type": "Point", "coordinates": [-86.10268662199996, 32.35500907100004]}}, {"type": "Feature", "properties": {"FID_": 175, "NCESSCH": "010019702432", "LEAID": "0100197", "NAME": "Acceleration Day and Evening Academy", "OPSTFIPS": "01", "STREET": "3100 Cottage Hill Rd", "CITY": "Mobile", "STATE": "AL", "ZIP": "36606", "STFIP": "01", "CNTY": "01097", "NMCNTY": "Mobile County", "LOCALE": "12", "LAT": 30.668018, "LON": -88.11973, "CBSA": "33660", "NMCBSA": "Mobile, AL", "CBSATYPE": "1", "CSA": "380", "NMCSA": "Mobile-Daphne-Fairhope, AL", "NECTA": "N", "NMNECTA": "N", "CD": "0101", "SLDL": "01103", "SLDU": "01033", "SCHOOLYEAR": "2018-2019"}, "geometry": {"type": "Point", "coordinates": [-88.11973510799999, 30.668023634000065]}}, {"type": "Feature", "properties": {"FID_": 176, "NCESSCH": "010019802450", "LEAID": "0100198", "NAME": "Sequel TSI Montgomery LLC", "OPSTFIPS": "01", "STREET": "135 Mildred St", "CITY": "MONTGOMERY", "STATE": "AL", "ZIP": "36104", "STFIP": "01", "CNTY": "01101", "NMCNTY": "Montgomery County", "LOCALE": "12", "LAT": 32.37078, "LON": -86.31163, "CBSA": "33860", "NMCBSA": "Montgomery, AL", "CBSATYPE": "1", "CSA": "N", "NMCSA": "N", "NECTA": "N", "NMNECTA": "N", "CD": "0102", "SLDL": "01077", "SLDU": "01026", "SCHOOLYEAR": "2018-2019"}, "geometry": {"type": "Point", "coordinates": [-86.31163468199998, 32.37078606700004]}}, {"type": "Feature", "properties": {"FID_": 177, "NCESSCH": "010019902452", "LEAID": "0100199", "NAME": "University Charter School", "OPSTFIPS": "01", "STREET": "108 School Street", "CITY": "Livingston", "STATE": "AL", "ZIP": "35470", "STFIP": "01", "CNTY": "01119", "NMCNTY": "Sumter County", "LOCALE": "43", "LAT": 32.586288, "LON": -88.189067, "CBSA": "N", "NMCBSA": "N", "CBSATYPE": "0", "CSA": "N", "NMCSA": "N", "NECTA": "N", "NMNECTA": "N", "CD": "0107", "SLDL": "01071", "SLDU": "01024", "SCHOOLYEAR": "2018-2019"}, "geometry": {"type": "Point", "coordinates": [-88.18907221999996, 32.586294045000045]}}, {"type": "Feature", "properties": {"FID_": 178, "NCESSCH": "010020002463", "LEAID": "0100200", "NAME": "East Alabama Medical Center", "OPSTFIPS": "01", "STREET": "2000 Pepperell Pkwy", "CITY": "Opelika", "STATE": "AL", "ZIP": "35601", "STFIP": "01", "CNTY": "01081", "NMCNTY": "Lee County", "LOCALE": "13", "LAT": 32.638835, "LON": -85.404667, "CBSA": "12220", "NMCBSA": "Auburn-Opelika, AL", "CBSATYPE": "1", "CSA": "194", "NMCSA": "Columbus-Auburn-Opelika, GA-AL", "NECTA": "N", "NMNECTA": "N", "CD": "0103", "SLDL": "01083", "SLDU": "01027", "SCHOOLYEAR": "2018-2019"}, "geometry": {"type": "Point", "coordinates": [-85.40467143799998, 32.63884115800005]}}, {"type": "Feature", "properties": {"FID_": 179, "NCESSCH": "010021000036", "LEAID": "0100210", "NAME": "Auburn High School", "OPSTFIPS": "01", "STREET": "1701 E Samford Avenue", "CITY": "Auburn", "STATE": "AL", "ZIP": "36830", "STFIP": "01", "CNTY": "01081", "NMCNTY": "Lee County", "LOCALE": "13", "LAT": 32.603878, "LON": -85.446081, "CBSA": "12220", "NMCBSA": "Auburn-Opelika, AL", "CBSATYPE": "1", "CSA": "194", "NMCSA": "Columbus-Auburn-Opelika, GA-AL", "NECTA": "N", "NMNECTA": "N", "CD": "0103", "SLDL": "01079", "SLDU": "01027", "SCHOOLYEAR": "2018-2019"}, "geometry": {"type": "Point", "coordinates": [-85.44608544799996, 32.603884149000066]}}, {"type": "Feature", "properties": {"FID_": 180, "NCESSCH": "010021000037", "LEAID": "0100210", "NAME": "Auburn Junior High School", "OPSTFIPS": "01", "STREET": "405 S Dean Rd", "CITY": "Auburn", "STATE": "AL", "ZIP": "36830", "STFIP": "01", "CNTY": "01081", "NMCNTY": "Lee County", "LOCALE": "13", "LAT": 32.596469, "LON": -85.463119, "CBSA": "12220", "NMCBSA": "Auburn-Opelika, AL", "CBSATYPE": "1", "CSA": "194", "NMCSA": "Columbus-Auburn-Opelika, GA-AL", "NECTA": "N", "NMNECTA": "N", "CD": "0103", "SLDL": "01079", "SLDU": "01027", "SCHOOLYEAR": "2018-2019"}, "geometry": {"type": "Point", "coordinates": [-85.46312345199999, 32.596475146000046]}}, {"type": "Feature", "properties": {"FID_": 181, "NCESSCH": "010021000039", "LEAID": "0100210", "NAME": "Cary Woods Elementary School", "OPSTFIPS": "01", "STREET": "715 Sanders St", "CITY": "Auburn", "STATE": "AL", "ZIP": "36830", "STFIP": "01", "CNTY": "01081", "NMCNTY": "Lee County", "LOCALE": "13", "LAT": 32.620936, "LON": -85.484673, "CBSA": "12220", "NMCBSA": "Auburn-Opelika, AL", "CBSATYPE": "1", "CSA": "194", "NMCSA": "Columbus-Auburn-Opelika, GA-AL", "NECTA": "N", "NMNECTA": "N", "CD": "0103", "SLDL": "01079", "SLDU": "01027", "SCHOOLYEAR": "2018-2019"}, "geometry": {"type": "Point", "coordinates": [-85.48467745899995, 32.620942152000055]}}, {"type": "Feature", "properties": {"FID_": 182, "NCESSCH": "010021000040", "LEAID": "0100210", "NAME": "Dean Road Elementary School", "OPSTFIPS": "01", "STREET": "335 S Dean Rd", "CITY": "Auburn", "STATE": "AL", "ZIP": "36830", "STFIP": "01", "CNTY": "01081", "NMCNTY": "Lee County", "LOCALE": "13", "LAT": 32.600491, "LON": -85.464089, "CBSA": "12220", "NMCBSA": "Auburn-Opelika, AL", "CBSATYPE": "1", "CSA": "194", "NMCSA": "Columbus-Auburn-Opelika, GA-AL", "NECTA": "N", "NMNECTA": "N", "CD": "0103", "SLDL": "01079", "SLDU": "01027", "SCHOOLYEAR": "2018-2019"}, "geometry": {"type": "Point", "coordinates": [-85.46409345299998, 32.600497148000045]}}, {"type": "Feature", "properties": {"FID_": 183, "NCESSCH": "010021000041", "LEAID": "0100210", "NAME": "Drake Middle School", "OPSTFIPS": "01", "STREET": "655 Spencer Ave", "CITY": "Auburn", "STATE": "AL", "ZIP": "36832", "STFIP": "01", "CNTY": "01081", "NMCNTY": "Lee County", "LOCALE": "13", "LAT": 32.618099, "LON": -85.494389, "CBSA": "12220", "NMCBSA": "Auburn-Opelika, AL", "CBSATYPE": "1", "CSA": "194", "NMCSA": "Columbus-Auburn-Opelika, GA-AL", "NECTA": "N", "NMNECTA": "N", "CD": "0103", "SLDL": "01079", "SLDU": "01027", "SCHOOLYEAR": "2018-2019"}, "geometry": {"type": "Point", "coordinates": [-85.49439346199995, 32.618105150000076]}}, {"type": "Feature", "properties": {"FID_": 184, "NCESSCH": "010021000042", "LEAID": "0100210", "NAME": "Wrights Mill Road Elementary School", "OPSTFIPS": "01", "STREET": "807 Wrights Mill Rd", "CITY": "Auburn", "STATE": "AL", "ZIP": "36830", "STFIP": "01", "CNTY": "01081", "NMCNTY": "Lee County", "LOCALE": "13", "LAT": 32.589963, "LON": -85.472008, "CBSA": "12220", "NMCBSA": "Auburn-Opelika, AL", "CBSATYPE": "1", "CSA": "194", "NMCSA": "Columbus-Auburn-Opelika, GA-AL", "NECTA": "N", "NMNECTA": "N", "CD": "0103", "SLDL": "01079", "SLDU": "01027", "SCHOOLYEAR": "2018-2019"}, "geometry": {"type": "Point", "coordinates": [-85.47201245399998, 32.589969145000055]}}, {"type": "Feature", "properties": {"FID_": 185, "NCESSCH": "010021000053", "LEAID": "0100210", "NAME": "Auburn Early Education Center", "OPSTFIPS": "01", "STREET": "721 E University Dr", "CITY": "Auburn", "STATE": "AL", "ZIP": "36830", "STFIP": "01", "CNTY": "01081", "NMCNTY": "Lee County", "LOCALE": "13", "LAT": 32.585926, "LON": -85.468923, "CBSA": "12220", "NMCBSA": "Auburn-Opelika, AL", "CBSATYPE": "1", "CSA": "194", "NMCSA": "Columbus-Auburn-Opelika, GA-AL", "NECTA": "N", "NMNECTA": "N", "CD": "0103", "SLDL": "01079", "SLDU": "01027", "SCHOOLYEAR": "2018-2019"}, "geometry": {"type": "Point", "coordinates": [-85.46892745299994, 32.585932144000026]}}, {"type": "Feature", "properties": {"FID_": 186, "NCESSCH": "010021001254", "LEAID": "0100210", "NAME": "Ogletree Elementary School", "OPSTFIPS": "01", "STREET": "737 Ogletree Rd", "CITY": "Auburn", "STATE": "AL", "ZIP": "36830", "STFIP": "01", "CNTY": "01081", "NMCNTY": "Lee County", "LOCALE": "41", "LAT": 32.564003, "LON": -85.456576, "CBSA": "12220", "NMCBSA": "Auburn-Opelika, AL", "CBSATYPE": "1", "CSA": "194", "NMCSA": "Columbus-Auburn-Opelika, GA-AL", "NECTA": "N", "NMNECTA": "N", "CD": "0103", "SLDL": "01079", "SLDU": "01027", "SCHOOLYEAR": "2018-2019"}, "geometry": {"type": "Point", "coordinates": [-85.45658044899994, 32.56400914000005]}}, {"type": "Feature", "properties": {"FID_": 187, "NCESSCH": "010021001259", "LEAID": "0100210", "NAME": "Margaret Yarbrough Elementary School", "OPSTFIPS": "01", "STREET": "1555 N Donahue Dr", "CITY": "Auburn", "STATE": "AL", "ZIP": "36830", "STFIP": "01", "CNTY": "01081", "NMCNTY": "Lee County", "LOCALE": "41", "LAT": 32.640382, "LON": -85.506468, "CBSA": "12220", "NMCBSA": "Auburn-Opelika, AL", "CBSATYPE": "1", "CSA": "194", "NMCSA": "Columbus-Auburn-Opelika, GA-AL", "NECTA": "N", "NMNECTA": "N", "CD": "0103", "SLDL": "01079", "SLDU": "01027", "SCHOOLYEAR": "2018-2019"}, "geometry": {"type": "Point", "coordinates": [-85.50647246599993, 32.64038815500004]}}, {"type": "Feature", "properties": {"FID_": 188, "NCESSCH": "010021001879", "LEAID": "0100210", "NAME": "Richland Elementary School", "OPSTFIPS": "01", "STREET": "770 S Yarbrough Farms Boulevard", "CITY": "Auburn", "STATE": "AL", "ZIP": "36830", "STFIP": "01", "CNTY": "01081", "NMCNTY": "Lee County", "LOCALE": "13", "LAT": 32.619649, "LON": -85.513374, "CBSA": "12220", "NMCBSA": "Auburn-Opelika, AL", "CBSATYPE": "1", "CSA": "194", "NMCSA": "Columbus-Auburn-Opelika, GA-AL", "NECTA": "N", "NMNECTA": "N", "CD": "0103", "SLDL": "01079", "SLDU": "01027", "SCHOOLYEAR": "2018-2019"}, "geometry": {"type": "Point", "coordinates": [-85.51337846699994, 32.61965515000003]}}, {"type": "Feature", "properties": {"FID_": 189, "NCESSCH": "010021002363", "LEAID": "0100210", "NAME": "Pick Elementary School", "OPSTFIPS": "01", "STREET": "1320 N College St", "CITY": "Auburn", "STATE": "AL", "ZIP": "36830", "STFIP": "01", "CNTY": "01081", "NMCNTY": "Lee County", "LOCALE": "13", "LAT": 32.633511, "LON": -85.47833, "CBSA": "12220", "NMCBSA": "Auburn-Opelika, AL", "CBSATYPE": "1", "CSA": "194", "NMCSA": "Columbus-Auburn-Opelika, GA-AL", "NECTA": "N", "NMNECTA": "N", "CD": "0103", "SLDL": "01079", "SLDU": "01027", "SCHOOLYEAR": "2018-2019"}, "geometry": {"type": "Point", "coordinates": [-85.47833445799995, 32.63351715400006]}}, {"type": "Feature", "properties": {"FID_": 190, "NCESSCH": "010021002440", "LEAID": "0100210", "NAME": "East Samford School", "OPSTFIPS": "01", "STREET": "332 E Samford Avenue", "CITY": "Auburn", "STATE": "AL", "ZIP": "36830", "STFIP": "01", "CNTY": "01081", "NMCNTY": "Lee County", "LOCALE": "13", "LAT": 32.598241, "LON": -85.476613, "CBSA": "12220", "NMCBSA": "Auburn-Opelika, AL", "CBSATYPE": "1", "CSA": "194", "NMCSA": "Columbus-Auburn-Opelika, GA-AL", "NECTA": "N", "NMNECTA": "N", "CD": "0103", "SLDL": "01079", "SLDU": "01027", "SCHOOLYEAR": "2018-2019"}, "geometry": {"type": "Point", "coordinates": [-85.47661745599999, 32.59824714700005]}}, {"type": "Feature", "properties": {"FID_": 191, "NCESSCH": "010021002454", "LEAID": "0100210", "NAME": "Creekside Elementary School", "OPSTFIPS": "01", "STREET": "1800 Richland Road", "CITY": "Auburn", "STATE": "AL", "ZIP": "36832", "STFIP": "01", "CNTY": "01081", "NMCNTY": "Lee County", "LOCALE": "41", "LAT": 32.623183, "LON": -85.517929, "CBSA": "12220", "NMCBSA": "Auburn-Opelika, AL", "CBSATYPE": "1", "CSA": "194", "NMCSA": "Columbus-Auburn-Opelika, GA-AL", "NECTA": "N", "NMNECTA": "N", "CD": "0103", "SLDL": "01079", "SLDU": "01027", "SCHOOLYEAR": "2018-2019"}, "geometry": {"type": "Point", "coordinates": [-85.51793346899996, 32.623189151000076]}}, {"type": "Feature", "properties": {"FID_": 192, "NCESSCH": "010024000045", "LEAID": "0100240", "NAME": "Billingsley High School", "OPSTFIPS": "01", "STREET": "2446 County Road 77", "CITY": "Billingsley", "STATE": "AL", "ZIP": "36006", "STFIP": "01", "CNTY": "01001", "NMCNTY": "Autauga County", "LOCALE": "42", "LAT": 32.663571, "LON": -86.700747, "CBSA": "33860", "NMCBSA": "Montgomery, AL", "CBSATYPE": "1", "CSA": "N", "NMCSA": "N", "NECTA": "N", "NMNECTA": "N", "CD": "0102", "SLDL": "01042", "SLDU": "01030", "SCHOOLYEAR": "2018-2019"}, "geometry": {"type": "Point", "coordinates": [-86.70075180599997, 32.663577117000045]}}, {"type": "Feature", "properties": {"FID_": 193, "NCESSCH": "010024000046", "LEAID": "0100240", "NAME": "Marbury High School", "OPSTFIPS": "01", "STREET": "2360 Highway 31 North", "CITY": "Deatsville", "STATE": "AL", "ZIP": "36022", "STFIP": "01", "CNTY": "01001", "NMCNTY": "Autauga County", "LOCALE": "41", "LAT": 32.619027, "LON": -86.481999, "CBSA": "33860", "NMCBSA": "Montgomery, AL", "CBSATYPE": "1", "CSA": "N", "NMCSA": "N", "NECTA": "N", "NMNECTA": "N", "CD": "0102", "SLDL": "01042", "SLDU": "01030", "SCHOOLYEAR": "2018-2019"}, "geometry": {"type": "Point", "coordinates": [-86.48200374199996, 32.619033115000036]}}, {"type": "Feature", "properties": {"FID_": 194, "NCESSCH": "010024000047", "LEAID": "0100240", "NAME": "Prattville Elementary School", "OPSTFIPS": "01", "STREET": "134 Patrick St", "CITY": "Prattville", "STATE": "AL", "ZIP": "36067", "STFIP": "01", "CNTY": "01001", "NMCNTY": "Autauga County", "LOCALE": "21", "LAT": 32.454675, "LON": -86.455471, "CBSA": "33860", "NMCBSA": "Montgomery, AL", "CBSATYPE": "1", "CSA": "N", "NMCSA": "N", "NECTA": "N", "NMNECTA": "N", "CD": "0102", "SLDL": "01088", "SLDU": "01030", "SCHOOLYEAR": "2018-2019"}, "geometry": {"type": "Point", "coordinates": [-86.45547572699996, 32.45468108000006]}}, {"type": "Feature", "properties": {"FID_": 195, "NCESSCH": "010024000048", "LEAID": "0100240", "NAME": "Prattville High School", "OPSTFIPS": "01", "STREET": "1315 Upper Kingston Rd", "CITY": "Prattville", "STATE": "AL", "ZIP": "36067", "STFIP": "01", "CNTY": "01001", "NMCNTY": "Autauga County", "LOCALE": "41", "LAT": 32.500533, "LON": -86.471585, "CBSA": "33860", "NMCBSA": "Montgomery, AL", "CBSATYPE": "1", "CSA": "N", "NMCSA": "N", "NECTA": "N", "NMNECTA": "N", "CD": "0102", "SLDL": "01042", "SLDU": "01030", "SCHOOLYEAR": "2018-2019"}, "geometry": {"type": "Point", "coordinates": [-86.47158973299997, 32.500539090000075]}}, {"type": "Feature", "properties": {"FID_": 196, "NCESSCH": "010024000049", "LEAID": "0100240", "NAME": "Prattville Junior High School", "OPSTFIPS": "01", "STREET": "1089 N Chestnut", "CITY": "Prattville", "STATE": "AL", "ZIP": "36067", "STFIP": "01", "CNTY": "01001", "NMCNTY": "Autauga County", "LOCALE": "21", "LAT": 32.484949, "LON": -86.470642, "CBSA": "33860", "NMCBSA": "Montgomery, AL", "CBSATYPE": "1", "CSA": "N", "NMCSA": "N", "NECTA": "N", "NMNECTA": "N", "CD": "0102", "SLDL": "01088", "SLDU": "01030", "SCHOOLYEAR": "2018-2019"}, "geometry": {"type": "Point", "coordinates": [-86.47064673299997, 32.48495508700006]}}, {"type": "Feature", "properties": {"FID_": 197, "NCESSCH": "010024000050", "LEAID": "0100240", "NAME": "Prattville Intermediate School", "OPSTFIPS": "01", "STREET": "1020 Honeysuckle Dr", "CITY": "Prattville", "STATE": "AL", "ZIP": "36067", "STFIP": "01", "CNTY": "01001", "NMCNTY": "Autauga County", "LOCALE": "21", "LAT": 32.454222, "LON": -86.451616, "CBSA": "33860", "NMCBSA": "Montgomery, AL", "CBSATYPE": "1", "CSA": "N", "NMCSA": "N", "NECTA": "N", "NMNECTA": "N", "CD": "0102", "SLDL": "01088", "SLDU": "01030", "SCHOOLYEAR": "2018-2019"}, "geometry": {"type": "Point", "coordinates": [-86.45162072499994, 32.45422808100005]}}, {"type": "Feature", "properties": {"FID_": 198, "NCESSCH": "010024000051", "LEAID": "0100240", "NAME": "Prattville Primary School", "OPSTFIPS": "01", "STREET": "216 Wetumpka St", "CITY": "Prattville", "STATE": "AL", "ZIP": "36067", "STFIP": "01", "CNTY": "01001", "NMCNTY": "Autauga County", "LOCALE": "21", "LAT": 32.462388, "LON": -86.46838, "CBSA": "33860", "NMCBSA": "Montgomery, AL", "CBSATYPE": "1", "CSA": "N", "NMCSA": "N", "NECTA": "N", "NMNECTA": "N", "CD": "0102", "SLDL": "01088", "SLDU": "01030", "SCHOOLYEAR": "2018-2019"}, "geometry": {"type": "Point", "coordinates": [-86.46838473099996, 32.46239408200006]}}, {"type": "Feature", "properties": {"FID_": 199, "NCESSCH": "010024000543", "LEAID": "0100240", "NAME": "Pine Level Elementary School", "OPSTFIPS": "01", "STREET": "2040 Highway 31 N", "CITY": "Deatsville", "STATE": "AL", "ZIP": "36022", "STFIP": "01", "CNTY": "01001", "NMCNTY": "Autauga County", "LOCALE": "41", "LAT": 32.589386, "LON": -86.463004, "CBSA": "33860", "NMCBSA": "Montgomery, AL", "CBSATYPE": "1", "CSA": "N", "NMCSA": "N", "NECTA": "N", "NMNECTA": "N", "CD": "0102", "SLDL": "01042", "SLDU": "01030", "SCHOOLYEAR": "2018-2019"}, "geometry": {"type": "Point", "coordinates": [-86.46300873499996, 32.58939211000006]}}, {"type": "Feature", "properties": {"FID_": 200, "NCESSCH": "010024000546", "LEAID": "0100240", "NAME": "Daniel Pratt Elementary School", "OPSTFIPS": "01", "STREET": "420 Harvest Loop", "CITY": "Prattville", "STATE": "AL", "ZIP": "36066", "STFIP": "01", "CNTY": "01001", "NMCNTY": "Autauga County", "LOCALE": "21", "LAT": 32.452238, "LON": -86.42219, "CBSA": "33860", "NMCBSA": "Montgomery, AL", "CBSATYPE": "1", "CSA": "N", "NMCSA": "N", "NECTA": "N", "NMNECTA": "N", "CD": "0102", "SLDL": "01088", "SLDU": "01030", "SCHOOLYEAR": "2018-2019"}, "geometry": {"type": "Point", "coordinates": [-86.42219471699997, 32.45224408100006]}}, {"type": "Feature", "properties": {"FID_": 201, "NCESSCH": "010024000587", "LEAID": "0100240", "NAME": "Autauga County Alternative School", "OPSTFIPS": "01", "STREET": "816 Cardinal Ln", "CITY": "Prattville", "STATE": "AL", "ZIP": "36067", "STFIP": "01", "CNTY": "01001", "NMCNTY": "Autauga County", "LOCALE": "21", "LAT": 32.455059, "LON": -86.454282, "CBSA": "33860", "NMCBSA": "Montgomery, AL", "CBSATYPE": "1", "CSA": "N", "NMCSA": "N", "NECTA": "N", "NMNECTA": "N", "CD": "0102", "SLDL": "01088", "SLDU": "01030", "SCHOOLYEAR": "2018-2019"}, "geometry": {"type": "Point", "coordinates": [-86.45428672699995, 32.45506508100004]}}], "bbox": [-88.33722516599994, 30.619216616000074, -85.38464136399995, 34.812325557000065]}